Airport_IATA,Airport_Name,Country_Code,Country_Name,Latitude,Longitude
AAA,Anaa,PF,French Polynesia,-17.3525,-145.51
AHE,Ahe,PF,French Polynesia,-14.4281,-146.2569
AUQ,Hiva Oa Atuona,PF,French Polynesia,-9.7689,-139.0114
AXR,Arutua,PF,French Polynesia,-15.2483,-146.6167
BOB,Bora Bora Motu Mute,PF,French Polynesia,-16.4444,-151.7514
FAC,Faaite,PF,French Polynesia,-16.6867,-145.3297
FAV,Fakarava,PF,French Polynesia,-16.0542,-145.6569
FGU,Fangatau,PF,French Polynesia,-15.82,-140.8858
FHZ,Fakahina,PF,French Polynesia,-15.9922,-140.1647
GMR,Totegegie,PF,French Polynesia,-23.08,-134.8903
HHZ,Hikueru,PF,French Polynesia,-17.5481,-142.6133
HIX,Hiva Oa,PF,French Polynesia,-9.75,-139.0
HOI,Hao,PF,French Polynesia,-18.0747,-140.9458
HUH,Huahine Fare,PF,French Polynesia,-16.6872,-151.0217
KHZ,Kauehi,PF,French Polynesia,-15.7808,-145.1242
KKR,Kaukura,PF,French Polynesia,-15.6633,-146.8847
KXU,Katiu,PF,French Polynesia,-16.3394,-144.4031
MAU,Maupiti Island,PF,French Polynesia,-16.4264,-152.2436
MKP,Makemo Airport,PF,French Polynesia,-16.5839,-143.6583
MOZ,Moorea Temae,PF,French Polynesia,-17.49,-149.7619
MVT,Mataiva,PF,French Polynesia,-14.8697,-148.7131
NAU,Napuka,PF,French Polynesia,-14.1769,-141.2672
NHV,Nuku Hiva Airport,PF,French Polynesia,-8.7956,-140.2289
NIU,Niau Airport,PF,French Polynesia,-16.1208,-146.3736
NKP,Nukutepipi Airport,PF,French Polynesia,-20.4536,-143.5294
PKP,Puka Puka,PF,French Polynesia,-14.8094,-138.8128
PUK,Pukarua,PF,French Polynesia,-18.2961,-137.0158
REA,Reao,PF,French Polynesia,-18.4661,-136.4394
RFP,Raiatea Island Uturoa,PF,French Polynesia,-16.7228,-151.4658
RGI,Rangiroa Island Seaplane Base,PF,French Polynesia,-14.9542,-147.6608
RKA,Aratika-Nord,PF,French Polynesia,-15.4853,-145.4678
RUR,Rurutu,PF,French Polynesia,-22.4342,-151.3606
RVV,Raivavae,PF,French Polynesia,-23.8853,-147.6619
TKP,Takapoto,PF,French Polynesia,-14.7094,-145.2458
TKV,Tatakoto,PF,French Polynesia,-17.3556,-138.4486
TKX,Takaroa,PF,French Polynesia,-14.4558,-145.0244
TPX,Tupai Airport,PF,French Polynesia,-16.2333,-151.8333
TTI,Tetiaroa Airport,PF,French Polynesia,-17.0833,-149.5333
UOA,Moruroa Atoll,PF,French Polynesia,-21.8097,-138.8122
VHZ,Vahitahi,PF,French Polynesia,-18.7797,-138.8533
XMH,Manihi,PF,French Polynesia,-14.4367,-146.07
ZTA,Tureia,PF,French Polynesia,-20.7806,-138.5675
AAB,Arrabury Airport,AU,Australia,-26.6911,141.0472
ABG,Abingdon Downs,AU,Australia,-17.6667,143.2
ABH,Alpha,AU,Australia,-23.7,146.5833
ABM,Bamaga Northern Peninsula,AU,Australia,-10.9508,142.4594
ABX,Albury,AU,Australia,-36.0678,146.9581
ADL,Adelaide,AU,Australia,-34.945,138.5306
ADO,Andamooka,AU,Australia,-30.4339,137.1372
AGW,Agnew,AU,Australia,-12.15,142.15
ALH,Albany,AU,Australia,-34.9433,117.8089
AMT,Amata,AU,Australia,-26.2,131.1167
AMX,Ammaroo,AU,Australia,-21.74,135.24
ASP,Alice Springs,AU,Australia,-23.8067,133.9022
AUD,Augustus Downs,AU,Australia,-18.6667,139.9333
AUU,Aurukun,AU,Australia,-13.3539,141.7208
AVG,Auvergne Station,AU,Australia,-15.75,129.9167
AVV,Melbourne Avalon Airport,AU,Australia,-38.0394,144.4694
AWN,Alton Downs,AU,Australia,-26.4833,139.3167
AWP,Austral Downs Station,AU,Australia,-20.3333,137.25
AXC,Aramac,AU,Australia,-23.0833,145.25
AXL,Alexandria Station,AU,Australia,-19.1167,136.7667
AYD,Alroy Downs,AU,Australia,-19.3,135.95
AYL,Anthony Lagoon,AU,Australia,-18.0167,135.55
AYQ,Ayers Rock Connellan,AU,Australia,-25.1861,130.9756
AYR,Ayr,AU,Australia,-19.6667,147.3667
BBL,Ballera,AU,Australia,-27.4036,141.8117
BCI,Barcaldine,AU,Australia,-23.5608,145.3042
BCK,Bolwarra,AU,Australia,-17.4,144.1667
BCZ,Bickerton Island,AU,Australia,-13.7833,137.8
BDB,Bundaberg,AU,Australia,-24.9025,152.3208
BDD,Badu Island,AU,Australia,-10.15,142.1742
BDW,Bedford Downs,AU,Australia,-17.3,127.4667
BEE,Beagle Bay,AU,Australia,-16.9167,122.55
BEO,Newcastle Aeropelican Apt,AU,Australia,-33.0333,151.6667
BEU,Bedourie,AU,Australia,-24.3461,139.4603
BFC,Bloomfield River,AU,Australia,-15.8739,145.33
BHQ,Broken Hill,AU,Australia,-32.0014,141.4717
BHS,Bathurst,AU,Australia,-33.4094,149.6519
BHT,Brighton Downs,AU,Australia,-23.5,141.6333
BIP,Bulimba,AU,Australia,-16.15,143.75
BIW,Billiluna,AU,Australia,-19.5833,127.6333
BKP,Barkly Downs,AU,Australia,-21.0333,138.25
BKQ,Blackall,AU,Australia,-24.4325,145.4281
BLN,Benalla,AU,Australia,-36.55,145.9833
BLS,Bollon,AU,Australia,-28.0333,147.3667
BLT,Blackwater,AU,Australia,-23.6031,148.8069
BME,Broome,AU,Australia,-17.9489,122.2283
BMP,Brampton Island,AU,Australia,-20.7833,149.2333
BNE,???????,AU,Australia,-27.3842,153.1175
BNK,Ballina Byron Gateway,AU,Australia,-28.8339,153.5625
BOX,Borroloola,AU,Australia,-16.0833,136.3
BQB,Busselton,AU,Australia,-33.6875,115.4022
BQL,Boulia,AU,Australia,-22.9131,139.9008
BQW,Balgo Hill,AU,Australia,-20.1333,127.8
BRJ,Bright,AU,Australia,-36.7333,146.9667
BRK,Bourke,AU,Australia,-30.0406,145.9467
BRT,Bathurst Island,AU,Australia,-11.7667,130.6333
BSJ,Bairnsdale,AU,Australia,-37.8833,147.5667
BTD,Brunette Downs,AU,Australia,-18.6333,135.9333
BTX,Betoota,AU,Australia,-25.6333,140.8
BUC,Burketown,AU,Australia,-17.7486,139.5344
BUY,Bunbury,AU,Australia,-33.3781,115.6786
BVI,Birdsville,AU,Australia,-25.8919,139.3453
BVW,Batavia Downs,AU,Australia,-12.45,143.25
BVZ,Beverley Springs,AU,Australia,-16.7322,125.4392
BWB,Barrow Island,AU,Australia,-20.8,115.3833
BWQ,Brewarrina,AU,Australia,-29.9667,146.8167
BWT,Burnie Wynyard,AU,Australia,-40.9972,145.7267
BWU,Sydney Bankstown,AU,Australia,-33.9233,150.9903
BXF,Bellburn,AU,Australia,-17.5456,128.3078
BXG,Bendigo,AU,Australia,-36.7347,144.3186
BYP,Barimunya,AU,Australia,-22.6725,119.1658
BYX,Baniyala,AU,Australia,-13.2,136.2333
BZD,Balranald,AU,Australia,-34.6333,143.55
BZP,Bizant,AU,Australia,-15.2167,144.6333
CAZ,Cobar,AU,Australia,-31.5375,145.7944
CBC,Cherrabun,AU,Australia,-18.6667,125.3667
CBI,Cape Barren Island,AU,Australia,-40.3903,148.0153
CBR,Canberra,AU,Australia,-35.3069,149.195
CBX,Condobolin,AU,Australia,-33.0667,147.2
CBY,Canobie,AU,Australia,-19.6333,140.9167
CCL,Chinchilla,AU,Australia,-26.7722,150.6181
CCW,Cowell,AU,Australia,-33.6667,136.9
CDA,Cooinda,AU,Australia,-12.9,132.5167
CDQ,Croydon,AU,Australia,-18.3,142.25
CDU,Camden,AU,Australia,-34.05,150.7
CED,Ceduna,AU,Australia,-32.1306,133.7097
CJF,Coondewanna,AU,Australia,-22.965,118.8125
CKI,Croker Island,AU,Australia,-11.0833,132.5
CKW,Christmas Creek Mine,AU,Australia,-22.3542,119.6425
CLH,Coolah,AU,Australia,-31.8333,149.7
CMA,Cunnamulla,AU,Australia,-28.03,145.6222
CMD,Cootamundra,AU,Australia,-34.6333,148.05
CML,Camooweal,AU,Australia,-19.9167,138.1333
CMQ,Clermont,AU,Australia,-22.7667,147.6167
CNB,Coonamble,AU,Australia,-30.9833,148.3833
CNJ,Cloncurry,AU,Australia,-20.6686,140.5044
CNS,Cairns,AU,Australia,-16.8781,145.7489
COB,Coolibah,AU,Australia,-15.6667,130.9667
COJ,Coonabarabran,AU,Australia,-31.3333,149.2667
COY,Coolawanyah Station,AU,Australia,-21.8,117.7667
CPD,Coober Pedy,AU,Australia,-29.0403,134.72
CQP,Cape Flattery,AU,Australia,-18.2,147.5
CRB,Collarenebri,AU,Australia,-29.5258,148.5758
CRH,Cherrabah,AU,Australia,-27.65,151.95
CRJ,Coorabie,AU,Australia,-31.9,132.3
CRY,Carlton Hill,AU,Australia,-15.7,128.5
CSD,Cresswell Downs,AU,Australia,-17.9667,135.9167
CSI,Casino,AU,Australia,-28.8833,153.0667
CTL,Charleville,AU,Australia,-26.4133,146.2625
CTN,Cooktown,AU,Australia,-15.4436,145.1828
CTR,Cattle Creek,AU,Australia,-17.5833,131.0
CUD,Caloundra,AU,Australia,-26.8,153.15
CUG,Cudal,AU,Australia,-33.2667,148.7667
CUQ,Coen,AU,Australia,-13.7628,143.1169
CUY,Cue,AU,Australia,-27.45,117.9167
CVC,Cleve,AU,Australia,-33.7,136.5
CVQ,Carnarvon,AU,Australia,-24.8847,113.6664
CWR,Cowarie,AU,Australia,-27.7167,138.3333
CWT,Cowra,AU,Australia,-33.85,148.65
CWW,Corowa,AU,Australia,-35.9833,146.35
CXQ,Christmas Creek Stn,AU,Australia,-18.8783,125.9289
CXT,Charters Towers,AU,Australia,-20.05,146.2667
CYG,Corryong,AU,Australia,-36.25,147.9
CZY,Cluny,AU,Australia,-24.5,139.5
DAJ,Dauan Island Heliport,AU,Australia,-9.4333,142.5167
DBO,Dubbo City Airport,AU,Australia,-32.2189,148.5756
DKI,Dunk Island,AU,Australia,-17.9392,146.1414
DKV,Docker River,AU,Australia,-24.8667,129.1167
DLK,Dulkaninna,AU,Australia,-29.0167,139.4667
DLV,Delissaville,AU,Australia,-12.4167,130.3417
DMD,Doomadgee Mission,AU,Australia,-17.9403,138.8217
DNB,Dunbar,AU,Australia,-16.0833,142.4167
DNG,Doongan,AU,Australia,-15.3833,126.3
DNM,Denham,AU,Australia,-25.9167,113.5333
DNQ,Deniliquin,AU,Australia,-35.55,144.95
DOX,Dongara,AU,Australia,-29.25,114.9333
DPO,Devonport,AU,Australia,-41.1697,146.4303
DRB,Derby Airport,AU,Australia,-17.3719,123.6625
DRD,Dorunda,AU,Australia,-16.5539,141.8239
DRN,Dirranbandi,AU,Australia,-28.5,148.2583
DRR,Durrie,AU,Australia,-25.6,140.25
DRW,Darwin,AU,Australia,-12.4147,130.8767
DRY,Drysdale River,AU,Australia,-15.6667,126.4167
DVP,Davenport Downs,AU,Australia,-24.1667,141.0833
DVR,Daly River Mission,AU,Australia,-13.75,130.6833
DXD,Dixie,AU,Australia,-15.1667,143.6667
DYA,Dysart,AU,Australia,-22.6167,148.3667
DYM,Diamantina Lakes,AU,Australia,-23.8667,141.25
DYW,Daly Waters,AU,Australia,-16.2667,133.3667
ECH,Echuca,AU,Australia,-36.15,144.75
EDD,Erldunda,AU,Australia,-25.25,133.2
EDR,Pormpuraaw,AU,Australia,-14.8969,141.6097
EIH,Einasleigh,AU,Australia,-18.5,144.1
EKD,Elkedra,AU,Australia,-21.0333,135.25
ELC,Elcho Island,AU,Australia,-12.0194,135.5706
EMD,Emerald,AU,Australia,-23.57,148.1778
ENB,Eneabba,AU,Australia,-30.0833,114.9833
EPR,Esperance,AU,Australia,-33.6822,121.8225
ERB,Ernabella,AU,Australia,-26.2667,132.1667
ERQ,Elrose Mine,AU,Australia,-20.9767,141.0086
ETD,Etadunna,AU,Australia,-28.7167,138.6333
EUC,Eucla,AU,Australia,-31.7167,128.8667
EVD,Eva Downs,AU,Australia,-18.0833,134.8667
EVH,Evans Head,AU,Australia,-29.1,153.4167
EXM,Exmouth,AU,Australia,-22.0403,114.1028
FIK,Finke,AU,Australia,-25.5833,134.6
FIZ,Fitzroy Crossing Fitzroy,AU,Australia,-18.1836,125.56
FLC,Falls Creek Heliport,AU,Australia,-34.9833,150.6
FLS,Flinders Island,AU,Australia,-40.0944,147.9939
FLY,Finley,AU,Australia,-35.65,145.5833
FOS,Forrest,AU,Australia,-30.8333,128.1
FOT,Forster,AU,Australia,-32.1833,152.5167
FRB,Forbes,AU,Australia,-33.3667,147.9333
FSL,Fossil Downs Station,AU,Australia,-18.2,125.75
FVL,Flora Valley,AU,Australia,-18.2833,128.4167
FVR,Forrest River Mission,AU,Australia,-15.1656,127.8411
GAH,Gayndah,AU,Australia,-25.6167,151.6167
GBL,South Goulburn Island,AU,Australia,-11.6667,133.4167
GBP,Gamboola,AU,Australia,-16.55,143.6667
GBV,Gibb River,AU,Australia,-16.3333,126.3667
GBW,Ginbata,AU,Australia,-22.6247,119.9586
GCQ,Gold Coast Bus Station,AU,Australia,-27.9672,153.4144
GDD,Gordon Downs,AU,Australia,-18.8333,128.5333
GEE,George Town,AU,Australia,-41.1,146.8333
GET,Geraldton,AU,Australia,-28.7967,114.7064
GEX,Geelong,AU,Australia,-38.2256,144.3333
GFE,Grenfell,AU,Australia,-33.9,148.1667
GFF,Griffith,AU,Australia,-34.2539,146.0617
GFN,Grafton Clarence Valley,AU,Australia,-29.7594,153.03
GGD,Gregory Downs,AU,Australia,-18.7,139.25
GIC,Boigu Island,AU,Australia,-9.2331,142.2175
GKL,Great Keppel Island,AU,Australia,-23.1833,150.95
GLG,Glengyle,AU,Australia,-24.7667,139.5833
GLI,Glen Innes,AU,Australia,-29.6833,151.7
GLM,Glenormiston,AU,Australia,-22.2833,138.3167
GLT,Gladstone,AU,Australia,-23.8697,151.2228
GLY,Mount Goldsworthy,AU,Australia,-20.0833,119.6667
GOO,Goondiwindi,AU,Australia,-28.5167,150.3167
GOS,Gosford,AU,Australia,-33.4333,151.35
GOV,Nhulunbuy Gove,AU,Australia,-12.2694,136.8183
GPD,Mount Gordon Mine,AU,Australia,-19.9994,139.9178
GPN,Garden Point,AU,Australia,-11.4,130.4333
GSC,Gascoyne Junction,AU,Australia,-25.05,115.2
GSN,Mount Gunson,AU,Australia,-31.4606,137.1725
GTE,Groote Eylandt,AU,Australia,-13.9725,136.4586
GTS,The Granites,AU,Australia,-20.5483,130.35
GTT,Georgetown,AU,Australia,-18.3,143.5333
GUH,Gunnedah,AU,Australia,-30.95,150.2333
GUL,Goulburn,AU,Australia,-34.8167,149.7333
HCQ,Halls Creek,AU,Australia,-18.2333,127.6667
HGD,Hughenden,AU,Australia,-20.8131,144.2253
HID,Horn Island,AU,Australia,-10.5864,142.29
HIG,Highbury,AU,Australia,-16.4333,143.15
HIH,Hook Island Heliport,AU,Australia,-20.1667,148.95
HIP,Headingly,AU,Australia,-21.3167,138.3
HIS,Hayman Island Heliport,AU,Australia,-20.06,148.8836
HLL,Hillside,AU,Australia,-17.0,128.0083
HLS,St Helens,AU,Australia,-41.0,148.175
HLT,Hamilton,AU,Australia,-37.6472,142.0619
HLV,Helenvale,AU,Australia,-15.6833,145.2
HMG,Hermannsburg,AU,Australia,-23.9667,132.6667
HNK,Hinchinbrook Island,AU,Australia,-18.3833,146.2833
HOK,Lajamanu Hooker Creek,AU,Australia,-18.3381,130.6375
HPE,Hopevale,AU,Australia,-14.6667,144.9167
HRN,Heron Island Heliport,AU,Australia,-23.4333,151.9167
HRY,Henbury,AU,Australia,-24.6667,133.0833
HSM,Horsham,AU,Australia,-36.6667,142.1667
HTI,Hamilton Island Great Barrier Reef,AU,Australia,-20.3581,148.9517
HTU,Hopetoun,AU,Australia,-35.7167,142.35
HUB,Humbert River,AU,Australia,-16.4897,130.6297
HVB,Hervey Bay,AU,Australia,-25.32,152.8803
HWK,Hawker,AU,Australia,-31.8547,138.4681
HXX,Hay,AU,Australia,-34.5167,144.8333
JCK,Julia Creek,AU,Australia,-20.6683,141.7225
JFM,Fremantle Heliport,AU,Australia,-32.0433,115.7394
JHQ,Shute Harbour,AU,Australia,-20.2833,148.75
JUN,Jundah,AU,Australia,-24.8,143.0333
JUR,Jurien Bay,AU,Australia,-30.2667,115.05
KAH,Yarra Bank Heliport,AU,Australia,-37.9833,144.9667
KAX,Kalbarri,AU,Australia,-27.6928,114.2592
KBB,Kirkimbie Station,AU,Australia,-17.7667,129.2167
KBD,Kimberley Downs Stn,AU,Australia,-17.4,124.3667
KBJ,Kings Canyon,AU,Australia,-24.2667,131.4944
KBY,Streaky Bay,AU,Australia,-32.8,134.2333
KCE,Collinsville,AU,Australia,-20.55,147.8667
KCI,Koolan Island Koolan Central,AU,Australia,-16.1258,123.7347
KCS,Kings Creek Station,AU,Australia,-24.3833,131.6833
KDB,Kambalda,AU,Australia,-31.2,121.6667
KDS,Kamaran Downs,AU,Australia,-24.3333,139.1667
KFE,Cloudbreak Fortescue Dave Forrest,AU,Australia,-22.2911,119.4383
KFG,Kalkgurung,AU,Australia,-17.4319,130.8081
KGC,Kingscote,AU,Australia,-35.7158,137.5258
KGI,Kalgoorlie-Boulder,AU,Australia,-30.7914,121.4636
KGR,Kulgera Roadhouse,AU,Australia,-25.8333,133.5
KGY,Kingaroy,AU,Australia,-26.5833,151.85
KKP,Koolburra,AU,Australia,-15.5833,143.95
KML,Kamileroi,AU,Australia,-19.5,140.0833
KNI,Katanning,AU,Australia,-33.7,117.55
KNS,King Island,AU,Australia,-39.8775,143.8783
KNX,Kununurra,AU,Australia,-15.7781,128.7075
KOH,Koolatah,AU,Australia,-15.9667,142.4167
KPP,Kalpowar,AU,Australia,-14.8833,144.2167
KPS,Kempsey,AU,Australia,-31.0667,152.7667
KQB,Koonibba,AU,Australia,-31.9667,133.45
KQR,Kararra,AU,Australia,-29.2169,116.6869
KRA,Kerang,AU,Australia,-35.75,143.9333
KRB,Karumba,AU,Australia,-17.4528,140.8328
KRD,Kurundi Station,AU,Australia,-20.5,134.6333
KSV,Springvale,AU,Australia,-23.6667,140.75
KTA,Karratha,AU,Australia,-20.7122,116.7733
KTR,Katherine Raaf Tindal,AU,Australia,-14.5211,132.3778
KUG,Kubin,AU,Australia,-10.2267,142.2197
KWM,Kowanyama,AU,Australia,-15.4853,141.7522
KYB,Ken's Bore,AU,Australia,-22.1606,116.1594
KYF,Yeelirrie,AU,Australia,-27.2778,120.075
KYI,Yalata Mission,AU,Australia,-31.4833,131.8667
LVO,Laverton,AU,Australia,-28.6136,122.4239
LWH,Lawn Hill,AU,Australia,-18.5658,138.6381
LYT,Lady Elliot Island,AU,Australia,-24.1167,152.7
LZR,Lizard Island,AU,Australia,-14.6731,145.4542
MBB,Marble Bar,AU,Australia,-21.1625,119.8353
MBF,Mount Buffalo Porepunkah,AU,Australia,-36.75,146.75
MBH,Maryborough,AU,Australia,-25.5133,152.715
MBN,Mount Barnett,AU,Australia,-16.6667,125.95
MBW,Moorabbin,AU,Australia,-37.9758,145.1022
MCV,Mcarthur River Mine,AU,Australia,-16.4422,136.0831
MCY,Sunshine Coast Maroochydore,AU,Australia,-26.6033,153.0911
MEB,Melbourne Essendon Apt,AU,Australia,-37.7333,144.9
MEL,Melbourne (AU),AU,Australia,-37.6733,144.8433
MET,Moreton,AU,Australia,-12.75,142.7667
MFL,Wando Vale Mount Full Stop,AU,Australia,-19.6667,144.9
MFP,Manners Creek Station,AU,Australia,-22.1,137.9833
MGB,Mount Gambier Airport,AU,Australia,-37.7456,140.7853
MGT,Milingimbi Island Airport,AU,Australia,-12.0944,134.8936
MGV,Margaret River Station,AU,Australia,-18.6167,126.8667
MHO,Mount House Airport,AU,Australia,-17.1667,125.6667
MHU,Mount Hotham Airport,AU,Australia,-37.0475,147.3342
MIH,Mitchell Plateau Airport,AU,Australia,-14.7833,125.8167
MIM,Merimbula Airport,AU,Australia,-36.9086,149.9014
MIN,Minnipa Airport,AU,Australia,-32.8333,135.1333
MIY,Mittiebah Airport,AU,Australia,-18.9,137.0667
MIZ,Mainoru Airport,AU,Australia,-14.3,134.0833
MJK,Monkey Mia Shark Bay,AU,Australia,-25.8953,113.5758
MJP,Manjimup Airport,AU,Australia,-34.2333,116.15
MKR,Meekatharra Airport,AU,Australia,-26.6117,118.5478
MKV,Mount Cavenagh Airport,AU,Australia,-25.9667,133.2
MKY,Mackay Airport,AU,Australia,-21.1717,149.1797
MLR,Millicent Airport,AU,Australia,-37.5831,140.3661
MLV,Merluna,AU,Australia,-13.0667,142.45
MMG,Mount Magnet,AU,Australia,-28.1161,117.8417
MMM,Middlemount,AU,Australia,-22.8006,148.705
MNE,Mungeranie,AU,Australia,-28.0167,138.6667
MNG,Maningrida,AU,Australia,-12.0561,134.2342
MNQ,Monto,AU,Australia,-24.8833,151.1
MNV,Mount Valley,AU,Australia,-14.1167,133.8333
MNW,Macdonald Downs,AU,Australia,-22.5,135.1667
MOO,Moomba,AU,Australia,-28.0994,140.1983
MOV,Moranbah,AU,Australia,-22.0586,148.0764
MQA,Mandora Station,AU,Australia,-19.8333,120.8333
MQE,Marqua,AU,Australia,-22.8167,137.35
MQL,Mildura,AU,Australia,-34.2292,142.0856
MQZ,Margaret River,AU,Australia,-33.95,115.0667
MRG,Mareeba,AU,Australia,-17.0,145.4333
MRL,Miner's Lake,AU,Australia,-20.0667,145.5833
MRP,Marla,AU,Australia,-27.0333,133.1167
MRT,Moroak,AU,Australia,-14.8167,133.7
MRZ,Moree,AU,Australia,-29.4989,149.8447
MSF,Mount Swan,AU,Australia,-22.6667,134.9167
MTD,Mount Sanford Station,AU,Australia,-16.9833,130.55
MTL,Maitland,AU,Australia,-32.7333,151.55
MTQ,Mitchell,AU,Australia,-26.5833,147.9667
MUP,Mulga Park,AU,Australia,-25.85,131.6
MUQ,Muccan Station,AU,Australia,-20.6333,120.0333
MVH,Macksville,AU,Australia,-30.7167,152.9167
MVK,Mulka,AU,Australia,-28.35,138.65
MVU,Musgrave,AU,Australia,-14.1667,143.6833
MWB,Morawa,AU,Australia,-29.2042,116.0225
MWT,Moolawatana,AU,Australia,-29.9167,139.7167
MWY,Miranda Downs,AU,Australia,-17.3667,141.8667
MXD,Marion Downs,AU,Australia,-23.5,139.6667
MXU,Mullewa,AU,Australia,-28.55,115.5167
MYA,Moruya,AU,Australia,-35.8983,150.1461
MYI,Murray Island,AU,Australia,-9.9153,144.0547
MYO,Myroodah Station,AU,Australia,-18.2,124.2
NAA,Narrabri,AU,Australia,-30.3192,149.8272
NAC,Naracoorte,AU,Australia,-36.9806,140.7233
NBH,Nambucca Heads,AU,Australia,-30.65,153.0
NBR,Nambour,AU,Australia,-26.6333,152.9667
NDS,Sandstone,AU,Australia,-28.0,119.25
NGA,Young Airport,AU,Australia,-34.25,148.25
NIF,Nifty Airport,AU,Australia,-21.6736,121.5961
NKB,Noonkanbah Airport,AU,Australia,-18.5,124.8333
NLF,Darnley Island Airport,AU,Australia,-9.5792,143.7803
NLL,Nullagine Airport,AU,Australia,-21.9167,120.2
NLS,Nicholson Airport,AU,Australia,-18.0417,128.9
NMP,New Moon Airport,AU,Australia,-19.2033,145.7719
NMR,Nappa Merrie Airport,AU,Australia,-27.6333,141.0833
NOA,Nowra Airport,AU,Australia,-34.9333,150.5667
NPP,Napperby Airport,AU,Australia,-22.6333,132.8333
NRA,Narrandera Airport,AU,Australia,-34.7022,146.5122
NRG,Narrogin,AU,Australia,-32.9333,117.1667
NRY,Newry,AU,Australia,-16.0833,129.3417
NSM,Norseman,AU,Australia,-32.2,121.75
NSO,Scone,AU,Australia,-32.0378,150.8317
NSV,Noosaville Noosa,AU,Australia,-26.4,153.0667
NTL,Newcastle Williamtown Apt,AU,Australia,-32.795,151.8344
NTN,Normanton,AU,Australia,-17.6836,141.0703
NUB,Numbulwar,AU,Australia,-14.2667,135.7167
ODR,Ord River,AU,Australia,-17.35,128.9
OKB,Fraser Island Orchid Beach,AU,Australia,-25.0,153.2833
OKR,Yorke Island,AU,Australia,-9.7528,143.4056
OKY,Oakey Army Aviation Center,AU,Australia,-27.4114,151.7353
OLP,Olympic Dam,AU,Australia,-30.485,136.8767
ONG,Mornington Island,AU,Australia,-16.6617,139.1706
ONR,Monkira,AU,Australia,-24.8167,140.5333
ONS,Onslow,AU,Australia,-21.6689,115.1125
OOD,Koodaideri Mine Gudai-Darri Mine,AU,Australia,-22.5222,119.0956
OOL,Gold Coast,AU,Australia,-28.1644,153.5047
OOM,Cooma Snowy Mountains,AU,Australia,-36.3006,148.9739
OOR,Mooraberree,AU,Australia,-25.245,140.9808
OPI,Oenpelli,AU,Australia,-12.3333,133.0833
ORR,Yorketown,AU,Australia,-35.0333,137.6
ORS,Orpheus Island Waterport Spb,AU,Australia,-18.6333,146.4833
OSO,Osborne Mine,AU,Australia,-22.0817,140.5569
OXO,Orientos,AU,Australia,-28.1333,141.5333
OXY,Morney,AU,Australia,-25.3667,141.4667
OYN,Ouyen,AU,Australia,-36.9319,142.3167
PBO,Paraburdoo,AU,Australia,-23.1719,117.7467
PBY,Long Island/Palm Bay Heliport,AU,Australia,-20.2833,148.8333
PDE,Pandie Pandie,AU,Australia,-26.1333,139.3833
PDN,Parndana,AU,Australia,-35.8,137.2167
PEA,Penneshaw,AU,Australia,-35.7333,137.9333
PEP,Peppimenarti,AU,Australia,-14.15,130.1
PER,????,AU,Australia,-31.9403,115.9669
PEY,Penong,AU,Australia,-31.9167,133.0167
PHE,Port Hedland International,AU,Australia,-20.3778,118.6264
PHJ,Newcastle Harbour Heliport,AU,Australia,-32.9167,151.7667
PHQ,Phosphate Hill,AU,Australia,-21.8117,139.9233
PKE,Parkes,AU,Australia,-33.1314,148.2392
PKT,Port Keats,AU,Australia,-14.25,129.5333
PLO,Port Lincoln Poonindie,AU,Australia,-34.6053,135.8803
PQQ,Port Macquarie,AU,Australia,-31.4356,152.8622
PRD,Pardoo Station,AU,Australia,-20.1333,119.5833
PTI,Port Douglas Heliport,AU,Australia,-16.4836,145.4514
PTJ,Portland,AU,Australia,-38.3194,141.4667
PUG,Port Augusta,AU,Australia,-32.5069,137.7167
QBW,Batemans Bay Off-Line Point,AU,Australia,-35.7167,150.1833
QDN,Eden Off-Line Point,AU,Australia,-37.0667,149.9
QEL,Wellington Off-Line Point,AU,Australia,-32.55,148.95
QIY,Bedarra Island Off-Line Point,AU,Australia,-18.0,146.1333
QJD,Jindabyne Off-Line Point,AU,Australia,-36.4194,148.6333
QLE,Leeton Bus Station,AU,Australia,-34.55,146.4
QPV,Perisher Valley Bus Station,AU,Australia,-37.5894,148.6167
QRM,Narromine Off-Line Pt,AU,Australia,-32.2333,148.25
QRR,Warren Off-Line Pt,AU,Australia,-31.7,147.8333
QRX,Narooma Off-Line Pt,AU,Australia,-36.2333,150.05
QTH,Thredbo Bus Station,AU,Australia,-36.4833,148.3167
QTO,Skitube Off-Line Point,AU,Australia,-36.4667,148.4667
QWL,Crackenback Village Bus Station,AU,Australia,-36.4667,148.4833
RHL,Roy Hill,AU,Australia,-22.6333,119.9667
RKY,Rokeby,AU,Australia,-13.65,142.6167
RTP,Rutland Plains,AU,Australia,-15.6,141.8333
RTS,Rottnest Island,AU,Australia,-32.0064,115.5397
RTY,Merty Merty,AU,Australia,-29.0,138.7333
RVT,Ravensthorpe,AU,Australia,-33.7972,120.2103
SBR,Saibai Island,AU,Australia,-9.3786,142.625
SCG,Spring Creek,AU,Australia,-18.6333,144.55
SFP,Surfers Paradise Heliport,AU,Australia,-28.0,153.4333
SGO,St George Saint George,AU,Australia,-28.0497,148.5953
SGP,Shay Gap,AU,Australia,-20.4833,120.1
SHQ,Southport,AU,Australia,-27.9519,153.4178
SHT,Shepparton,AU,Australia,-36.4333,145.4
SHU,Smith Point,AU,Australia,-11.1667,133.8333
SIO,Smithton,AU,Australia,-40.8333,145.0833
SIX,Singleton,AU,Australia,-32.5667,151.1667
SLJ,Solomon,AU,Australia,-22.2556,117.7628
SNB,Milikapiti Snake Bay,AU,Australia,-11.3333,130.75
SNH,Stanthorpe,AU,Australia,-28.6333,151.9667
SOI,South Molle Island Heliport,AU,Australia,-20.0,149.0
SQC,Southern Cross,AU,Australia,-31.25,119.3667
SQP,Starcke,AU,Australia,-14.2,147.1667
SRM,Sandringham Station,AU,Australia,-24.05,139.0667
SRN,Strahan,AU,Australia,-42.1575,145.2897
SRR,Stradbroke Island,AU,Australia,-27.5167,152.4333
SSK,Sturt Creek,AU,Australia,-19.3333,128.1333
SSP,Silver Plains,AU,Australia,-13.9833,143.55
STF,Stephens Island Airport,AU,Australia,-9.5,143.5667
STH,Strathmore Airport,AU,Australia,-17.8333,142.5333
SVM,St Pauls Airport,AU,Australia,-10.2,142.3
SWB,Shaw River Airport,AU,Australia,-21.5167,119.3667
SWC,Stawell Airport,AU,Australia,-37.0667,142.7667
SWH,Swan Hill Airport,AU,Australia,-35.3833,143.55
SXE,West Sale,AU,Australia,-38.0833,146.9667
SYD,??????,AU,Australia,-33.9461,151.1772
SYU,Warraber Island Airport,AU,Australia,-10.2072,142.8236
TAN,Tangalooma Airport,AU,Australia,-27.1417,153.4
TAQ,Tarcoola Airport,AU,Australia,-30.7042,134.5831
TBK,Timber Creek Airport,AU,Australia,-15.6167,130.4333
TBL,Tablelands Tableland Homestead,AU,Australia,-17.3,126.8333
TCA,Tennant Creek Airport,AU,Australia,-19.6344,134.1769
TCW,Tocumwal,AU,Australia,-35.8167,145.5667
TDN,Theda Station,AU,Australia,-14.75,126.5167
TDR,Theodore,AU,Australia,-24.9833,150.0833
TEF,Telfer,AU,Australia,-21.7161,122.2311
TEM,Temora,AU,Australia,-34.4167,147.5
TKY,Turkey Creek,AU,Australia,-17.05,128.2
TMW,Tamworth,AU,Australia,-31.0839,150.8467
TPR,Tom Price Airport,AU,Australia,-22.65,117.6667
TQP,Trepell Airport,AU,Australia,-21.835,140.8881
TRO,Taree Airport,AU,Australia,-31.8886,152.5139
TSV,Townsville International,AU,Australia,-19.2525,146.7653
UBU,Kalumburu Airport,AU,Australia,-14.4167,126.6667
UDA,Undara Airport,AU,Australia,-18.1833,144.6
UEE,Queenstown Airport,AU,Australia,-42.0,145.5083
UIR,Quirindi Airport,AU,Australia,-31.5,150.5167
ULP,Quilpie,AU,Australia,-26.6094,144.2581
UMR,Woomera Raaf Base,AU,Australia,-31.1667,136.8333
USL,Useless Loop,AU,Australia,-25.9667,113.1167
UTB,Muttaburra,AU,Australia,-22.75,144.5833
UTD,Nutwood Downs,AU,Australia,-15.8333,134.1667
VCD,Victoria River Downs,AU,Australia,-16.4036,131.0025
VNR,Vanrook Station,AU,Australia,-16.8667,141.9167
WAN,Waverney,AU,Australia,-25.3667,141.9333
WAU,Wauchope,AU,Australia,-20.6411,134.2172
WAV,Wave Hill,AU,Australia,-17.65,130.8833
WAZ,Warwick,AU,Australia,-28.15,151.95
WCD,Carosue Dam,AU,Australia,-30.1833,122.4
WDI,Wondai,AU,Australia,-26.3167,151.8667
WEI,Weipa,AU,Australia,-12.6786,141.9253
WEW,Wee Waa,AU,Australia,-30.2333,149.4333
WGA,Wagga Wagga,AU,Australia,-35.1653,147.4664
WGE,Walgett,AU,Australia,-30.0333,148.1333
WGT,Wangaratta,AU,Australia,-36.4158,146.3083
WGZ,Manly Off-Line Point,AU,Australia,-33.7997,151.2831
WHB,Eliwana,AU,Australia,-22.4292,116.8872
WHL,Welshpool,AU,Australia,-38.6889,146.45
WIN,Winton,AU,Australia,-22.3636,143.0856
WIO,Wilcannia,AU,Australia,-31.5667,143.3833
WIT,Wittenoom Gorge,AU,Australia,-22.2667,118.3333
XHW,Alice Springs Rail Station,AU,Australia,-23.6975,133.8739
XHX,Adelaide Keswick Rail Station,AU,Australia,-34.9381,138.5814
XJG,Darwin Rail Station,AU,Australia,-12.4725,130.9042
XMC,Mallacoota,AU,Australia,-37.6,149.7167
XML,Minlaton,AU,Australia,-34.7667,137.6
XMY,Yam Island,AU,Australia,-9.8992,142.7742
XOM,Melbourne Ferry Port,AU,Australia,-37.8167,144.9167
XPO,Perth Ferry Port,AU,Australia,-32.1,115.8
XQN,Brisbane Ferry Port,AU,Australia,-27.5333,153.25
XRH,Richmond Raaf Base,AU,Australia,-33.6042,150.7811
XTG,Thargomindah,AU,Australia,-27.9864,143.8122
XTO,Taroom,AU,Australia,-25.8022,149.8989
XTR,Tara,AU,Australia,-27.2833,150.4667
XYS,Sydney Ferry Port,AU,Australia,-33.9833,151.2
XZX,Rail (Generic) Rail Station,AU,Australia,-33.9167,151.1667
YLG,Yalgoo,AU,Australia,-28.35,116.6667
YNN,Yandicoogina,AU,Australia,-22.7667,119.2333
ZBL,Biloela,AU,Australia,-24.4,150.5
ZBO,Bowen,AU,Australia,-20.0167,148.2167
ZGL,South Galway,AU,Australia,-25.6833,142.1167
ZNE,Newman,AU,Australia,-23.4178,119.8028
ZVG,Springvale,AU,Australia,-17.8,127.6333
ZZF,Mystery Flight,AU,Australia,-37.0,144.0
ZZI,Elite Mystery Night Off-Line Point,AU,Australia,-37.1667,145.0
ZZJ,Mystery Night Off-Line Point,AU,Australia,-37.6667,145.0
AAC,El Arish International,EG,Egypt,31.0733,33.8358
ABS,Abu Simbel Airport,EG,Egypt,22.3758,31.6117
ALY,Alexandria,EG,Egypt,31.1839,29.9489
ASW,Aswan,EG,Egypt,23.9644,32.82
ATZ,Asyut,EG,Egypt,27.0464,31.0119
AUE,Abu Rudeis,EG,Egypt,28.9667,33.1833
CAI,????,EG,Egypt,30.1219,31.4056
CCE,Cairo Capital International,EG,Egypt,30.0722,31.8333
DAK,Dakhla Oasis,EG,Egypt,25.4167,29.0
DBB,Dabah Al Alamain Intl,EG,Egypt,30.9244,28.4614
EES,Berenice International,EG,Egypt,23.9867,35.4592
ELT,El-Tor,EG,Egypt,28.2,33.65
EMY,El-Minya,EG,Egypt,28.0833,30.7333
GSQ,Shark El-Owainat International,EG,Egypt,22.5833,28.7167
HMB,Sohag International,EG,Egypt,26.3428,31.7428
HRG,???????,EG,Egypt,27.1786,33.8014
LXR,??????,EG,Egypt,25.6711,32.7067
MUH,Mersa Matruh,EG,Egypt,31.3333,27.2167
PSD,Port Said,EG,Egypt,31.2833,32.2333
QDX,Damietta Off-Line Point,EG,Egypt,31.4333,31.8
QEK,El Mahalla El Kubra Off-Line Point,EG,Egypt,30.9667,31.1667
QEM,El-Manzala Off-Line Point,EG,Egypt,30.95,31.0833
QFM,Meet Ghamr Off-Line Point,EG,Egypt,30.7167,31.25
QGX,Girga Off-Line Point,EG,Egypt,31.425,31.75
QIV,Ismailia Off-Line Point,EG,Egypt,30.6,32.25
QSU,Mansoura Off-Line Pt,EG,Egypt,31.05,31.55
QTT,Tanta Off-Line Point,EG,Egypt,30.7839,30.9969
QUD,Damanhun Damanhur,EG,Egypt,31.05,30.4667
QUH,Shibin El Kom Off-Line Point,EG,Egypt,30.3333,31.0
RDL,New Ismailia Bardawil International,EG,Egypt,30.4094,33.1519
SEW,Siwa Oasis North,EG,Egypt,29.3461,25.5058
SKV,St Catherine International,EG,Egypt,28.6833,34.0667
SPX,Giza Sphinx International,EG,Egypt,30.1047,30.8969
SQK,Sidi Barrani,EG,Egypt,31.6,25.9333
SSH,Sharm El Sheikh,EG,Egypt,27.9772,34.395
TCP,Taba,EG,Egypt,29.5881,34.7764
UVL,Kharga,EG,Egypt,25.4767,30.59
AAD,Adado Airport,SO,Somalia,6.0961,46.6375
ALU,Alula,SO,Somalia,11.9667,50.75
BBO,Berbera,SO,Somalia,10.3892,44.9411
BIB,Baidoa,SO,Somalia,3.1025,43.6278
BLW,Beletwene,SO,Somalia,4.7658,45.2383
BSA,Bosaso International,SO,Somalia,11.2756,49.1578
BSY,Bardera,SO,Somalia,2.35,42.3333
BUO,Burao,SO,Somalia,9.5272,45.5553
BXX,Borama,SO,Somalia,9.9667,43.1167
CMO,Obbia,SO,Somalia,5.3667,48.5167
CMS,Scusciuban,SO,Somalia,10.3,50.2331
CXN,Candala,SO,Somalia,11.4942,49.9086
ERA,Erigavo,SO,Somalia,10.6167,47.4
GBM,Garbaharey,SO,Somalia,3.3333,42.1833
GGR,Garowe,SO,Somalia,8.4581,48.5675
GLK,Galcaio,SO,Somalia,6.7814,47.4544
GSR,Gardo,SO,Somalia,9.5167,49.0833
GUO,Guriel,SO,Somalia,5.3175,45.9853
HCM,Eil,SO,Somalia,8.0,49.925
HGA,Hargeisa Egal Intl,SO,Somalia,9.5139,44.0839
KMU,Kisimayu,SO,Somalia,-0.3772,42.4594
AAE,Annaba Rabah Bitat,DZ,Algeria,36.8222,7.8092
BJA,Bejaia Soummam-Abane Ramdane,DZ,Algeria,36.7119,5.07
BLJ,Batna Mostepha Ben Boulaid,DZ,Algeria,35.7522,6.3086
BSK,Biskra Mohamed Khider,DZ,Algeria,34.7933,5.7383
BUJ,Bou Saada Airport,DZ,Algeria,35.3333,4.2
CBH,Bechar Boudghene B. Ali Lotfi,DZ,Algeria,31.6461,-2.2789
CZL,Constantine Mohamed Boudiaf,DZ,Algeria,36.2761,6.6203
ELG,El Golea,DZ,Algeria,30.5817,2.8617
GJL,Jijel Ferhat Abbas,DZ,Algeria,36.795,5.8736
HRM,Hassi R'mel Tilrempt,DZ,Algeria,32.9333,3.3
MUW,Mascara Ghriss,DZ,Algeria,35.2075,0.1461
OGX,Ouargla Ain El Beida,DZ,Algeria,31.9239,5.4106
ORN,Oran Es Senia,DZ,Algeria,35.6239,-0.6211
QMT,Mostaganem Off-Line Pt,DZ,Algeria,35.85,0.1167
QOL,Collo Off-Line Pt,DZ,Algeria,37.0,6.5667
QSK,Souk Ahras Off-Line Pt,DZ,Algeria,36.3833,8.0
SKI,Skikda,DZ,Algeria,36.8694,6.95
TAF,Oran Tafaraoui Apt,DZ,Algeria,35.55,-0.5333
TEE,Tebessa Tbessa,DZ,Algeria,35.4317,8.1208
TLM,Tlemcen Zenata-Messali El Hadj,DZ,Algeria,35.0133,-1.4578
TMX,Timimoun,DZ,Algeria,29.2369,0.2769
ZZC,Cherchell Off-Line Point,DZ,Algeria,36.5958,2.2525
AAF,Apalachicola,US,United States Of America,29.7333,-85.0333
ABI,Abilene,US,United States Of America,32.4114,-99.6819
ABL,Ambler,US,United States Of America,67.1072,-157.8533
ABQ,Albuquerque,US,United States Of America,35.0406,-106.6094
ABR,Aberdeen (US),US,United States Of America,45.4536,-98.4256
ABY,Albany (US),US,United States Of America,31.5356,-84.1944
ACB,Bellaire Antrim County,US,United States Of America,44.9833,-85.2028
ACK,Nantucket,US,United States Of America,41.2531,-70.0603
ACT,Waco,US,United States Of America,31.6114,-97.2306
ACV,Arcata/Eureka,US,United States Of America,40.9781,-124.1086
ACY,Atlantic City,US,United States Of America,39.4575,-74.5772
ADG,Adrian Lenawee County,US,United States Of America,41.9,-84.0333
ADK,Adak Island,US,United States Of America,51.8811,-176.6483
ADM,Ardmore Municipal,US,United States Of America,34.3,-97.0167
ADQ,Kodiak,US,United States Of America,57.75,-152.4939
ADR,Andrews Robert F. Swinnie,US,United States Of America,33.45,-79.5667
ADS,Dallas Addison Apt,US,United States Of America,32.9703,-96.8372
ADT,Ada Municipal,US,United States Of America,34.8,-96.6667
ADW,Camp Springs Andrews,US,United States Of America,38.8089,-76.8708
AED,Aleneva,US,United States Of America,58.0333,-152.9
AED,Aleneva,US,United States Of America,58.0333,-152.9
AEL,Albert Lea Municipal,US,United States Of America,43.6833,-93.3667
AET,Allakaket,US,United States Of America,66.5506,-152.6319
AEX,Alexandria,US,United States Of America,31.3275,-92.5497
AFF,Colorado Springs Usaf Academy Airfield,US,United States Of America,39.0,-104.75
AFN,Jaffrey Silver Ranch,US,United States Of America,42.8056,-72.0033
AFO,Afton Municipal,US,United States Of America,42.7167,-110.9333
AFW,Dallas/Fort Worth Alliance,US,United States Of America,32.9833,-97.3167
AGC,Pittsburgh Allegheny,US,United States Of America,40.3544,-79.9297
AGN,Angoon,US,United States Of America,57.495,-134.5672
AGO,Magnolia Municipal,US,United States Of America,33.2333,-93.2167
AGS,Augusta,US,United States Of America,33.37,-81.9644
AHC,Herlong Amedee Army Air Field,US,United States Of America,40.15,-120.1333
AHD,Ardmore Downtown Executive Apt,US,United States Of America,34.1667,-97.1333
AHF,Arapahoe,US,United States Of America,40.3333,-99.9
AHH,Amery Municipal,US,United States Of America,45.2833,-92.3667
AHM,Ashland Municipal,US,United States Of America,42.1903,-122.6606
AHN,Athens,US,United States Of America,33.9494,-83.3219
AHT,Amchitka,US,United States Of America,51.5,179.0
AIA,Alliance,US,United States Of America,42.0519,-102.8078
AIB,Anita Bay,US,United States Of America,56.2333,-132.3833
AID,Anderson Municipal,US,United States Of America,40.1,-85.6667
AIK,Aiken,US,United States Of America,33.6494,-81.6892
AIN,Wainwright,US,United States Of America,70.6136,-159.8669
AIO,Atlantic Municipal,US,United States Of America,41.4,-95.0167
AIV,Aliceville George Downer,US,United States Of America,33.1,-88.2
AIZ,Kaiser/Lake Of The Ozarks Lee C Fine Me,US,United States Of America,38.1,-92.55
AKB,Atka,US,United States Of America,52.2183,-174.2064
AKC,Akron/Canton Akron Fulton Intl,US,United States Of America,41.0369,-81.4689
AKI,Akiak,US,United States Of America,60.9017,-161.2322
AKK,Akhiok,US,United States Of America,56.9386,-154.1839
AKN,King Salmon,US,United States Of America,58.6767,-156.6492
AKO,Akron Colorado Plains Rgnl,US,United States Of America,40.1667,-103.2167
AKP,Anaktuvuk Pass,US,United States Of America,68.1336,-151.7433
ALB,Albany (US),US,United States Of America,42.7483,-73.8017
ALE,Alpine Casparis Municipal,US,United States Of America,30.3861,-103.6833
ALI,Alice International,US,United States Of America,27.7392,-98.0269
ALM,Alamogordo White Sands Rgnl,US,United States Of America,32.84,-105.9906
ALN,Alton St Louis Regional,US,United States Of America,38.8917,-90.1722
ALO,Waterloo,US,United States Of America,42.5569,-92.4003
ALS,Alamosa San Luis Valley Rgnl,US,United States Of America,37.4375,-105.8664
ALW,Walla Walla,US,United States Of America,46.095,-118.2878
ALX,Alexander City Thomas C Russell Field,US,United States Of America,32.9333,-85.95
ALZ,Alitak,US,United States Of America,56.8989,-154.2497
AMA,Amarillo,US,United States Of America,35.2194,-101.7058
AMK,Durango Animas Air Park,US,United States Of America,37.1528,-107.7528
AMN,Alma Gratiot Community,US,United States Of America,43.3833,-84.65
AMW,Ames Municipal,US,United States Of America,42.0,-93.6167
ANB,Anniston Regional,US,United States Of America,33.5883,-85.8583
ANC,Anchorage,US,United States Of America,61.1744,-149.9964
AND,Anderson Regional,US,United States Of America,34.5,-82.7167
ANI,Aniak,US,United States Of America,61.5822,-159.5442
ASH,Nashua Boire Field,US,United States Of America,42.7833,-71.5167
ASL,Marshall Harrison County,US,United States Of America,32.55,-94.3667
ASN,Talladega Municipal,US,United States Of America,33.4333,-86.1
ASQ,Austin,US,United States Of America,39.5,-117.0667
AST,Astoria Regional,US,United States Of America,46.1592,-123.8811
ASX,Ashland John F Kennedy Memorial,US,United States Of America,46.55,-90.9167
ASY,Ashley Municipal,US,United States Of America,46.0333,-99.3667
ATE,Antlers Municipal,US,United States Of America,34.2333,-95.6167
ATK,Atqasuk E. Burnell Sr Memorial,US,United States Of America,70.4672,-157.4358
ATL,Atlanta,US,United States Of America,33.6367,-84.4281
ATO,Athens Ohio University,US,United States Of America,39.3333,-82.1
ATS,Artesia Municipal,US,United States Of America,32.85,-104.4667
ATT,Atmautluak Airport,US,United States Of America,60.8669,-162.2739
ATU,Attu Island Casco Cove Cgs,US,United States Of America,52.8333,173.1833
ATW,Appleton,US,United States Of America,44.2667,-88.5167
ATY,Watertown Regional,US,United States Of America,44.9136,-97.1511
AUG,Augusta State,US,United States Of America,44.3181,-69.7969
AUK,Alakanuk Municipal,US,United States Of America,62.6789,-164.6508
AUM,Austin Municipal,US,United States Of America,43.6667,-92.9333
AUN,Auburn Municipal,US,United States Of America,38.9,-121.0667
AUO,Auburn University Regional,US,United States Of America,32.6167,-85.4333
AUS,Austin-Bergstrom,US,United States Of America,30.1944,-97.67
AUW,Wausau Downtown Apt,US,United States Of America,44.9283,-89.6267
AUZ,Aurora Municipal,US,United States Of America,41.7667,-88.3167
AVL,Asheville,US,United States Of America,35.4361,-82.5419
AVO,Avon Park Executive,US,United States Of America,27.6,-81.5167
AVP,Wilkes-Barre,US,United States Of America,41.3386,-75.7233
AVT,Miami Aventura Brightline,US,United States Of America,25.9586,-80.1472
AVW,Tucson Marana Regional,US,United States Of America,32.4092,-111.2164
AVX,Avalon Catalina,US,United States Of America,33.405,-118.4161
AWM,West Memphis Municipal,US,United States Of America,35.1333,-90.1833
AXB,Alexandria Bay Maxson Airfield,US,United States Of America,44.2525,-75.9014
AXG,Algona Municipal,US,United States Of America,43.0667,-94.2333
AXS,Altus Quartz Mountain Rgnl,US,United States Of America,34.7028,-99.3333
AXV,Wapakoneta Neil Armstrong,US,United States Of America,40.5667,-84.1833
AXX,Angel Fire,US,United States Of America,36.4167,-105.2833
AYE,Fort Devens Army Air Field Heliport,US,United States Of America,42.5333,-71.6167
AYS,Waycross Ware County,US,United States Of America,31.25,-82.4
AYZ,Amityville Zahns,US,United States Of America,40.6667,-73.4167
AZA,Phoenix Williams Gateway,US,United States Of America,33.31,-111.6569
AZO,Kalamazoo,US,United States Of America,42.235,-85.5519
BAB,Marysville Beale Afb,US,United States Of America,39.1333,-121.3333
BAD,Shreveport Barksdale Afb,US,United States Of America,32.5033,-93.6642
BAF,Springfield/Westfield Barnes Regional,US,United States Of America,42.1586,-72.7156
BAM,Battle Mountain,US,United States Of America,40.6333,-116.9333
BBB,Benson Municipal,US,United States Of America,45.3328,-95.6514
BBC,Bay City Municipal,US,United States Of America,28.9833,-95.9667
BBD,Brady Curtis Field,US,United States Of America,31.1333,-99.3333
BBW,Broken Bow Municipal,US,United States Of America,41.4,-99.6333
BBX,Philadelphia Wings Field,US,United States Of America,40.1375,-75.2656
BCB,Blacksburg Virginia Technical,US,United States Of America,37.2083,-80.4092
BCC,Bear Creek 3,US,United States Of America,63.5706,-156.1514
BCE,Bryce Canyon,US,United States Of America,37.7,-112.15
BCS,Belle Chasse Southern Seaplane Apt,US,United States Of America,30.05,-90.2333
BCT,Boca Raton,US,United States Of America,26.3789,-80.1075
BDE,Baudette International,US,United States Of America,48.7167,-94.6
BDF,Bradford Rinkenberger,US,United States Of America,41.1833,-89.65
BDG,Blanding Municipal,US,United States Of America,37.5833,-109.4833
BDL,Hartford Bradley,US,United States Of America,41.9389,-72.6833
BDR,Bridgeport Igor I. Sikorsky,US,United States Of America,41.1636,-73.1261
BDX,Broadus,US,United States Of America,45.45,-105.4167
BDY,Bandon,US,United States Of America,43.1167,-124.4167
BEC,Wichita Beech Factory Apt,US,United States Of America,37.6833,-97.2167
BED,Bedford Laurence G Hanscom Field,US,United States Of America,42.47,-71.2892
BEH,Benton Harbor Southwest Michigan Region,US,United States Of America,42.1333,-86.4333
BET,Bethel,US,United States Of America,60.7797,-161.8381
BFD,Bradford Regional,US,United States Of America,41.8031,-78.64
BFF,Scottsbluff,US,United States Of America,41.8742,-103.5956
BFG,Glen Canyon Bullfrog Basin,US,United States Of America,37.55,-110.7083
BFI,Seattle Boeing Field,US,United States Of America,47.53,-122.3019
BFK,Denver Aurora/Buckley Afb,US,United States Of America,39.7167,-105.0167
BFL,Bakersfield,US,United States Of America,35.4336,-119.0567
BFM,Mobile Downtown Apt,US,United States Of America,30.6333,-88.0667
BFP,Beaver Falls Beaver County,US,United States Of America,40.7667,-80.4
BFR,Bedford Virgil I Grissom Municipal,US,United States Of America,38.85,-86.4833
BFT,Beaufort County,US,United States Of America,32.4117,-80.6358
BGD,Borger Hutchinson County,US,United States Of America,35.65,-101.4
BGE,Bainbridge Decatur Co Ind. Air Park,US,United States Of America,30.9,-84.6
BGM,Binghamton,US,United States Of America,42.2086,-75.9797
BGQ,Big Lake,US,United States Of America,61.5333,-149.8167
BGR,Bangor,US,United States Of America,44.8075,-68.8281
BGT,Bagdad,US,United States Of America,34.5667,-113.1833
BHB,Bar Harbor,US,United States Of America,44.4467,-68.3614
BHM,Birmingham/Alabama,US,United States Of America,33.5631,-86.7536
BID,Block Island State,US,United States Of America,41.1681,-71.5789
BIE,Beatrice Municipal,US,United States Of America,40.3167,-96.75
BIF,El Paso Biggs Aaf,US,United States Of America,31.8028,-106.3861
BIG,Delta Junction Allen Aaf,US,United States Of America,64.0,-145.7333
BIH,Bishop,US,United States Of America,37.3736,-118.3653
BIL,Billings,US,United States Of America,45.8078,-108.5428
BIS,Bismarck,US,United States Of America,46.7722,-100.7458
BIX,Gulfport/Biloxi Keesler Air Force Base,US,United States Of America,30.4,-88.9167
BJC,Denver Rocky Mountain Metrop.,US,United States Of America,39.9092,-105.1161
BJI,Bemidji,US,United States Of America,47.5097,-94.9331
BJJ,Wooster Wayne County,US,United States Of America,40.8,-81.9333
BKC,Buckland Municipal,US,United States Of America,65.9817,-161.1492
BKD,Breckenridge Stephens County,US,United States Of America,32.75,-98.9
BKE,Baker City Municipal,US,United States Of America,44.8333,-117.8167
BKF,Katmai National Park Lake Brooks Spb,US,United States Of America,58.6,-156.2333
BKG,Branson,US,United States Of America,36.5317,-93.1997
BKH,Kekaha,US,United States Of America,21.9667,-159.7167
BKL,Cleveland Burke Lakefront Apt,US,United States Of America,41.5175,-81.6833
BKT,Blackstone/Ft Pickett Blackstone Aaf,US,United States Of America,37.0833,-77.95
BKW,Beckley Raleigh County Memorial,US,United States Of America,37.7872,-81.1242
BKX,Brookings Regional,US,United States Of America,44.3044,-96.8186
BLD,Las Vegas Boulder City,US,United States Of America,35.9464,-114.8611
BLF,Bluefield/Princeton Mercer County,US,United States Of America,37.3,-81.2
BLH,Blythe Municipal,US,United States Of America,33.6167,-114.7167
BLI,Bellingham,US,United States Of America,48.7928,-122.5375
BLM,Belmar/Farmingdale Monmouth Executive,US,United States Of America,40.1856,-74.1236
BLU,Emigrant Gap Blue Canyon-Nyack,US,United States Of America,39.2667,-120.7
BLV,Belleville,US,United States Of America,38.5411,-89.8489
BMC,Brigham City Municipal,US,United States Of America,41.5333,-112.05
BMG,Bloomington Monroe County,US,United States Of America,39.1425,-86.6153
BMI,Bloomington-Normal,US,United States Of America,40.4772,-88.9158
BML,Berlin Regional,US,United States Of America,44.4833,-71.1667
BMT,Beaumont/Port Arthur Municipal Apt,US,United States Of America,30.0708,-94.2158
BMX,Big Mountain Municipal,US,United States Of America,59.3667,-155.2667
BNA,Nashville,US,United States Of America,36.1244,-86.6783
BNF,Baranof Warm Spring Afb,US,United States Of America,57.0833,-134.8167
BNG,Banning,US,United States Of America,33.9333,-116.8667
BNH,Boston Harbour Spb,US,United States Of America,42.36,-71.0278
BNL,Barnwell Regional,US,United States Of America,33.25,-81.3833
BNO,Burns Municipal,US,United States Of America,43.5833,-118.95
BNW,Boone Municipal,US,United States Of America,42.0667,-93.8833
BOF,Washington Bolling Afb Heliport,US,United States Of America,38.9167,-77.0167
BOI,Boise,US,United States Of America,43.5644,-116.2228
BOK,Brookings,US,United States Of America,42.05,-124.2833
BOS,Boston,US,United States Of America,42.3644,-71.0053
BOW,Bartow Municipal,US,United States Of America,27.9333,-81.7833
BPI,Big Piney/Marbleton Miley Memorial Fiel,US,United States Of America,42.5833,-110.1167
BPT,Beaumont Jefferson,US,United States Of America,29.9508,-94.0208
BQK,Brunswick Glynco Jetport,US,United States Of America,31.2589,-81.4664
BQV,Gustavus Bartlett Cove Spb,US,United States Of America,58.45,-135.8833
BRD,Brainerd,US,United States Of America,46.4033,-94.1297
BRL,Burlington Southeast Iowa Rgnl,US,United States Of America,40.7794,-91.1225
BRO,Brownsville,US,United States Of America,25.9069,-97.4258
BRW,Barrow,US,United States Of America,71.2856,-156.7661
BRY,Bardstown Samuels Field,US,United States Of America,37.8136,-85.5
BSF,Pohakuloa Bradshaw Army Air Field,US,United States Of America,19.7667,-155.55
BSQ,Douglas/Bisbee Bisbee Municipal,US,United States Of America,31.3639,-109.8811
BSW,Boswell Bay,US,United States Of America,60.4,-146.1333
BTF,Bountiful Skypark,US,United States Of America,40.8717,-111.9275
BTI,Barter Island,US,United States Of America,70.1339,-143.5819
BTL,Kalamazoo/Battle Creek W. K. Kellogg Re,US,United States Of America,42.3039,-85.2561
BTM,Butte,US,United States Of America,45.9547,-112.4975
BTN,Bennettsville Marlboro Co. Jetport,US,United States Of America,34.6167,-79.6833
BTP,Butler County,US,United States Of America,40.7767,-79.9511
BTR,Baton Rouge,US,United States Of America,30.5331,-91.1497
BTT,Bettles,US,United States Of America,66.9139,-151.5292
BTV,Burlington,US,United States Of America,44.4719,-73.1533
BTY,Beatty,US,United States Of America,36.8528,-116.7833
BUB,Burwell Cram Field,US,United States Of America,41.7833,-99.1333
BUF,Buffalo,US,United States Of America,42.9406,-78.7322
BUM,Butler Memorial,US,United States Of America,38.25,-94.3167
BUR,Burbank,US,United States Of America,34.2006,-118.3586
BVD,Beaver Inlet Sea Port,US,United States Of America,53.7333,-166.3167
BVO,Bartlesville Municipal,US,United States Of America,36.7667,-96.0
BVU,Beluga,US,United States Of America,61.1694,-151.0361
BVX,Batesville Regional,US,United States Of America,35.7667,-91.65
BVY,Beverly,US,United States Of America,42.5842,-70.9161
BWC,Brawley,US,United States Of America,32.9833,-115.5167
BWD,Brownwood Regional,US,United States Of America,31.8,-98.95
BWG,Bowling Green Warren County Regional,US,United States Of America,36.9675,-86.4192
BWI,Baltimore Washington,US,United States Of America,39.1753,-76.6683
BWL,Blackwell-Tonkawa Muni,US,United States Of America,36.8,-97.2833
BWM,Bowman Municipal,US,United States Of America,46.1333,-103.5833
BWS,Blaine,US,United States Of America,48.9667,-122.8333
BXA,Bogalusa George R. Carr Mem.,US,United States Of America,30.7833,-89.8667
BXC,Boxborough,US,United States Of America,42.4836,-71.5353
BXK,Buckeye Municipal,US,United States Of America,33.3667,-112.5833
BXS,Borrego Springs,US,United States Of America,33.25,-116.3167
BYA,Boundary,US,United States Of America,64.0833,-141.1167
BYG,Buffalo Johnson County,US,United States Of America,44.35,-106.7
BYH,Blytheville Arkansas Intl,US,United States Of America,35.95,-89.95
BYI,Burley/Rupert Burley Municipal,US,United States Of America,42.5333,-113.7667
BYS,Fort Irwin/Barstow Bicycle Lake Army Ai,US,United States Of America,35.2806,-116.63
BYW,Blakely Island,US,United States Of America,48.5833,-122.8333
BZF,Redding Benton Field,US,United States Of America,40.575,-122.4081
BZN,Bozeman,US,United States Of America,45.7775,-111.1531
BZT,Brazoria Eagle Air Park,US,United States Of America,29.05,-95.5667
CAD,Cadillac Wexford County,US,United States Of America,44.2758,-85.4222
CAE,Columbia,US,United States Of America,33.9389,-81.1194
CAK,Akron/Canton,US,United States Of America,40.9161,-81.4422
CAO,Clayton Municipal Airpark,US,United States Of America,36.45,-103.1833
CAR,Caribou Municipal,US,United States Of America,46.8667,-68.0167
CBE,Greater Cumberland Regional,US,United States Of America,39.6,-78.7667
CBF,Council Bluffs Municipal,US,United States Of America,41.2667,-95.8667
CBK,Colby Shalz Field,US,United States Of America,39.4167,-101.05
CBM,Columbus Afb,US,United States Of America,33.6333,-88.4333
CCB,Upland Cable Apt,US,United States Of America,34.0833,-117.6333
CCD,Los Angeles Century City Heliport,US,United States Of America,34.0667,-118.2667
CCG,Crane County,US,United States Of America,31.4,-102.35
CCR,Concord Buchanan Field,US,United States Of America,37.9919,-122.0558
CCY,Charles City Northeast Iowa Rgnl,US,United States Of America,43.0667,-92.6667
CDB,Cold Bay,US,United States Of America,55.2061,-162.7256
CDC,Cedar City Regional,US,United States Of America,37.7008,-113.0989
CDH,Camden Harrell Field,US,United States Of America,33.6167,-92.7667
CDK,Cedar Key George T. Lewis,US,United States Of America,29.1333,-83.0333
CDL,Candle,US,United States Of America,65.9,-161.9167
CDN,Camden Woodward Field,US,United States Of America,34.2667,-80.6
CDR,Chadron Municipal,US,United States Of America,42.835,-103.0986
CDS,Childress,US,United States Of America,34.4167,-100.2167
CDV,Cordova Mudhole,US,United States Of America,60.4917,-145.4775
CDW,Caldwell Essex County,US,United States Of America,40.8753,-74.2808
CEA,Wichita Cessna Aircraft Field,US,United States Of America,37.6861,-97.2167
CEC,Crescent City,US,United States Of America,41.7803,-124.2367
CEF,Springfield/Westover Metropolitan Apt,US,United States Of America,42.1889,-72.5378
CEM,Central,US,United States Of America,65.5736,-144.7792
CIU,Sault Ste Marie Chippewa,US,United States Of America,46.2508,-84.4725
CIV,Chomley,US,United States Of America,55.2167,-132.2167
CKA,Cherokee Kegelman Af Aux Field,US,United States Of America,36.7442,-98.1233
CKB,Clarksburg,US,United States Of America,39.2967,-80.2281
CKD,Crooked Creek,US,United States Of America,61.8667,-158.1333
CKE,Lakeport Lampson Field,US,United States Of America,39.0333,-122.8333
CKK,Cherokee Sharp County Regional,US,United States Of America,36.2833,-91.5
CKM,Clarksdale Fletcher Field,US,United States Of America,34.2,-90.5667
CKN,Crookston Municipal,US,United States Of America,47.85,-96.6167
CKR,Crane Island,US,United States Of America,48.5981,-122.9981
CKU,Cordova Municipal Apt,US,United States Of America,60.55,-145.7333
CKV,Clarksville Montgomery County Regional,US,United States Of America,36.6167,-87.4167
CKX,Chicken,US,United States Of America,64.0664,-141.9514
CLC,Clear Lake City Stolport,US,United States Of America,29.5575,-95.1392
CLD,Carlsbad,US,United States Of America,33.1283,-117.28
CLE,Cleveland,US,United States Of America,41.4117,-81.8497
CLG,Coalinga Municipal,US,United States Of America,36.15,-120.35
CLI,Clintonville Municipal,US,United States Of America,44.6167,-88.7667
CLK,Clinton Regional Airport,US,United States Of America,35.5383,-98.9333
CLL,College Station,US,United States Of America,30.5886,-96.3639
CLM,Port Angeles,US,United States Of America,48.1175,-123.4958
CLP,Clarks Point,US,United States Of America,58.8336,-158.5294
CLR,Calipatria Cliff Hatfield Mem.,US,United States Of America,33.1333,-115.5167
CLS,Chehalis-Centralia,US,United States Of America,46.6833,-122.9833
CLT,??????,US,United States Of America,35.2139,-80.9431
CLU,Columbus,US,United States Of America,39.1333,-85.9333
CLW,Clearwater,US,United States Of America,27.9028,-82.6861
CMH,Columbus OH,US,United States Of America,39.9981,-82.8919
CMI,Champaign,US,United States Of America,40.0392,-88.2781
CMX,Hancock,US,United States Of America,47.1683,-88.4892
CMY,Sparta Fort Mccoy,US,United States Of America,43.95,-90.7833
CNE,Canon City,US,United States Of America,38.4167,-105.1
CNH,Claremont Municipal,US,United States Of America,43.3667,-72.3667
CNK,Concordia Blosser Municipal,US,United States Of America,39.55,-97.65
CNM,Carlsbad Cavern City Air Term.,US,United States Of America,32.3375,-104.2633
CNO,Chino,US,United States Of America,34.0167,-117.7
CNU,Chanute Martin Johnson,US,United States Of America,37.6833,-95.45
CNW,Waco Tstc Waco,US,United States Of America,31.6333,-97.0667
CNY,Moab Canyon Land Field,US,United States Of America,38.7608,-109.7475
COA,Columbia,US,United States Of America,38.0333,-120.4167
COD,Cody,US,United States Of America,44.5178,-109.0261
COE,Coeur D'alene Pappy Boyington Field,US,United States Of America,47.7667,-116.8167
COF,Cocoa Beach Patrick Afb,US,United States Of America,28.2336,-80.6103
COI,Merritt Island,US,United States Of America,28.3417,-80.6856
COM,Coleman Municipal,US,United States Of America,31.8333,-99.4333
CON,Concord Municipal,US,United States Of America,43.2028,-71.5022
COP,Cooperstown Westville,US,United States Of America,42.7,-74.9333
COS,Colorado Springs,US,United States Of America,38.8058,-104.7008
COT,Cotulla La Salle County,US,United States Of America,28.4333,-99.2333
COU,Columbia,US,United States Of America,38.8181,-92.2197
CPM,Compton Woodley,US,United States Of America,33.9,-118.2167
CPR,Casper,US,United States Of America,42.9081,-106.4644
CPS,St Louis Bi-State Parks Airport,US,United States Of America,38.5689,-90.1542
CRE,Myrtle Beach Grand Strand Apt,US,United States Of America,33.8117,-78.7239
CRG,Jacksonville Executive (Craig) Apt,US,United States Of America,30.3339,-81.5133
CRO,Corcoran,US,United States Of America,36.1,-119.55
CRP,Corpus Christi,US,United States Of America,27.7703,-97.5011
CRS,Corsicana C. David Campbell Fld,US,United States Of America,32.1,-96.4667
CRT,Crossett Z. M. Jack Stell Field,US,United States Of America,33.1333,-91.9667
CRW,Charleston/Yeager,US,United States Of America,38.3731,-81.5931
CRX,Corinth Roscoe Turner,US,United States Of America,34.9144,-88.6033
CSE,Crested Butte Buckhorn Ranch,US,United States Of America,38.8667,-106.9833
CSG,Columbus Metropolitan,US,United States Of America,32.5144,-84.9403
CSJ,Columbus,US,United States Of America,32.5164,-84.9389
CSL,San Luis Obispo,US,United States Of America,35.3261,-120.7433
CSM,Clinton Sherman Airport,US,United States Of America,35.34,-99.1981
CSN,Carson City Carson Airport,US,United States Of America,39.2,-119.7333
CSP,Cape Spencer Coast Guard Heliport,US,United States Of America,58.2,-136.6333
CSQ,Creston Municipal,US,United States Of America,41.0667,-94.3667
CSV,Crossville Memorial-Whitson Field,US,United States Of America,35.95,-85.0833
CTB,Cut Bank International,US,United States Of America,48.6333,-112.3333
CTH,Coatesville Chester County,US,United States Of America,39.9667,-75.8167
CTK,Canton Municipal,US,United States Of America,43.3,-96.5833
CTO,Calverton Executive Airpark,US,United States Of America,40.9167,-72.75
CTW,Cottonwood,US,United States Of America,34.7303,-112.0353
CTX,Cortland County,US,United States Of America,42.5933,-76.2142
CTY,Cross City,US,United States Of America,29.65,-83.1167
CTZ,Clinton Sampson County,US,United States Of America,35.0,-78.3333
CUB,Columbia J. Hamilton-L. B. Owens,US,United States Of America,33.9833,-81.0
CUH,Cushing,US,United States Of America,35.9833,-96.7667
CUS,Columbus Municipal,US,United States Of America,31.8333,-107.6333
CUW,Cube Cove,US,United States Of America,58.35,-133.7667
CUX,Corpus Christi Cuddihy Field,US,United States Of America,27.7833,-97.5
CVA,Pittsburgh Civic Arena H/P,US,United States Of America,40.4833,-80.2167
CVG,Cincinnati,US,United States Of America,39.0489,-84.6678
CVN,Clovis Municipal Apt,US,United States Of America,34.4264,-103.0789
CVO,Corvallis/Albany Corvallis Municipal,US,United States Of America,44.5,-123.2833
CVR,Culver City Hughes,US,United States Of America,34.0167,-118.4
CVS,Clovis Cannon Afb,US,United States Of America,34.3878,-103.3192
CWA,Wausau,US,United States Of America,44.7833,-89.6667
CWF,Lake Charles Chennault International,US,United States Of America,30.2108,-93.1431
CWG,Callaway Gardens,US,United States Of America,32.8333,-84.8833
CWI,Clinton Municipal,US,United States Of America,41.8333,-90.35
CWO,Mineral Wells Fort Wolter Aaf,US,United States Of America,32.7861,-98.0694
CWS,Center Island,US,United States Of America,47.485,-122.8314
CWX,Willcox Cochise County,US,United States Of America,32.2453,-109.8944
CXC,Chitina,US,United States Of America,61.5667,-144.4167
CXF,Coldfoot,US,United States Of America,67.2517,-150.2042
CXL,Calexico International,US,United States Of America,32.6667,-115.5167
CXO,Houston Conroe,US,United States Of America,30.3167,-95.45
CYE,Crystal Lake,US,United States Of America,41.2103,-75.8322
CYF,Chefornak,US,United States Of America,60.1597,-164.2747
CYM,Chatham,US,United States Of America,57.5,-134.75
CYS,Cheyenne,US,United States Of America,41.1558,-104.8119
CYT,Yakataga,US,United States Of America,60.0833,-142.4833
CZC,Copper Center 2,US,United States Of America,61.9667,-145.3167
CZF,Cape Romanzof,US,United States Of America,61.7333,-166.0
CZK,Cascade Locks State,US,United States Of America,45.6667,-121.9
CZN,Chisana,US,United States Of America,62.0736,-142.0511
CZO,Chistochina,US,United States Of America,62.5667,-144.6667
CZP,Cape Pole Sea Plane Base,US,United States Of America,55.9667,-133.7833
CZT,Carrizo Springs Dimmit County,US,United States Of America,28.5167,-99.8667
CZZ,Campo,US,United States Of America,32.5833,-116.4667
DAA,Fort Belvoir,US,United States Of America,38.7147,-77.1806
DAB,Daytona Beach,US,United States Of America,29.18,-81.0581
DAG,Daggett Barstow-Dagge,US,United States Of America,34.85,-116.7833
DAL,Dallas/Fort Worth Love Field,US,United States Of America,32.8472,-96.8517
DAN,Danville Regional,US,United States Of America,36.5689,-79.3394
DAY,Dayton,US,United States Of America,39.9025,-84.2194
DBN,Dublin W. H. 'bud' Barron,US,United States Of America,32.55,-82.9833
DJN,Delta Junction Airport,US,United States Of America,64.0506,-145.7256
DKK,Dunkirk Chautauqua County,US,United States Of America,42.4833,-79.3333
DLF,Del Rio Laughlin Afb,US,United States Of America,29.3592,-100.7786
DLG,Dillingham,US,United States Of America,59.0447,-158.5056
DLH,Duluth,US,United States Of America,46.8422,-92.1936
DLL,Dillon County,US,United States Of America,34.4167,-79.3667
DLN,Dillon,US,United States Of America,45.2553,-112.5525
DLO,Dolomi,US,United States Of America,55.1333,-132.0514
DLS,The Dalles Columbia Gorge Rgnl,US,United States Of America,45.6,-121.1667
DMA,Tucson Davis-Monthan Afb,US,United States Of America,32.1703,-110.8869
DMN,Deming Municipal,US,United States Of America,32.2667,-107.75
DMO,Sedalia Regional,US,United States Of America,38.7092,-93.1728
DNE,Dallas/Fort Worth North Apt,US,United States Of America,32.9028,-97.0333
DNL,Augusta Daniel Field,US,United States Of America,33.4667,-82.0333
DNN,Dalton Municipal Airport,US,United States Of America,34.7167,-84.8667
DNS,Denison Municipal,US,United States Of America,41.9833,-95.3833
DNT,Santa Ana Downtown H/P,US,United States Of America,33.6694,-117.8667
DNV,Danville Vermilion Regional,US,United States Of America,40.2,-87.5833
DOF,Dora Bay,US,United States Of America,55.2125,-132.2667
DOV,Dover Afb,US,United States Of America,39.1333,-75.4667
DPA,Chicago Dupage,US,United States Of America,41.9069,-88.2542
DPG,Dugway Michael Aaf,US,United States Of America,40.1994,-112.9372
DPK,Deer Park,US,United States Of America,40.7667,-73.3333
DRA,Mercury Desert Rock,US,United States Of America,36.6667,-115.9833
DRE,Drummond Island,US,United States Of America,46.0089,-83.7464
DRF,Drift River,US,United States Of America,60.5833,-152.15
DRG,Deering Municipal,US,United States Of America,66.0694,-162.7664
DRI,Deridder Beauregard Regional,US,United States Of America,30.8322,-93.3411
DRO,Durango La Plata,US,United States Of America,37.1522,-107.7536
DRT,Del Rio,US,United States Of America,29.3733,-100.9264
DRU,Drummond,US,United States Of America,46.6167,-113.2
DSI,Destin/Ft Walton Beach Destin Exec Apt,US,United States Of America,30.4,-86.4714
DSM,Des Moines,US,United States Of America,41.5342,-93.6578
DSV,Dansville Municipal,US,United States Of America,42.55,-77.6833
DTA,Delta Municipal,US,United States Of America,39.3833,-112.5
DTH,Death Valley Nat. Park Furnance Creek,US,United States Of America,36.5,-117.0
DTL,Detroit Lakes Wething Field,US,United States Of America,46.8333,-95.8833
DTN,Shreveport Downtown Apt,US,United States Of America,32.45,-93.8333
DTR,Decatur Island Decatur Shores,US,United States Of America,48.5167,-122.8333
DTW,Detroit,US,United States Of America,42.2125,-83.3533
DUA,Durant Regional - Eaker Field,US,United States Of America,33.9833,-96.3667
DUC,Duncan Halliburton Field,US,United States Of America,34.4667,-97.9667
DUF,Corolla Pine Island,US,United States Of America,36.2583,-75.7889
DUG,Douglas/Bisbee Bisbee-Douglas Intl,US,United States Of America,31.4667,-109.6
DUJ,Dubois Regional,US,United States Of America,41.1783,-78.8986
DUT,Dutch Harbor,US,United States Of America,53.8989,-166.5447
DVL,Devils Lake,US,United States Of America,48.1156,-98.9081
DVN,Davenport Municipal,US,United States Of America,41.6167,-90.5833
DVT,Phoenix Deer Valley Apt,US,United States Of America,33.6839,-112.0833
DWF,Dayton Wright Afb,US,United States Of America,39.9028,-84.2167
DWH,Houston David Wayne Hooks Mem.,US,United States Of America,30.0611,-95.5544
DWN,Oklahoma City Downtown Airpark,US,United States Of America,35.45,-97.5333
DXE,Madison Bruce Campbell Field,US,United States Of America,32.4414,-90.1031
DXR,Danbury Municipal,US,United States Of America,41.3711,-73.4822
DYL,Doylestown,US,United States Of America,40.3167,-75.1333
DYS,Abilene Dyess Afb,US,United States Of America,32.4175,-99.685
EAA,Eagle,US,United States Of America,64.7783,-141.1606
EAN,Wheatland Phifer Airfield,US,United States Of America,42.0583,-104.9194
EAR,Kearney,US,United States Of America,40.7267,-99.0092
EAT,Wenatchee,US,United States Of America,47.3989,-120.2072
EAU,Eau Claire,US,United States Of America,44.8658,-91.4842
EBR,Baton Rouge Downtown Apt,US,United States Of America,30.5361,-91.15
EBS,Webster City Municipal,US,United States Of America,42.4667,-93.8
ECA,East Tawas Iosco County,US,United States Of America,44.2667,-83.4833
ECG,Elizabeth City Regional,US,United States Of America,36.2667,-76.1833
ECP,Panama City (US),US,United States Of America,30.3578,-85.7989
ECS,Newcastle Mondell Field,US,United States Of America,43.8833,-104.3167
EDA,Edna Bay Sea Plane Base,US,United States Of America,55.95,-133.6667
EDC,Austin Executive,US,United States Of America,30.4,-97.5742
EDE,Edenton Noertheastern Regional,US,United States Of America,36.0667,-76.65
EDF,Anchorage Elmendorf Afb,US,United States Of America,61.2525,-149.7981
EDG,Edgewood Weide Ahp,US,United States Of America,39.4167,-76.3
EDK,El Dorado Capt. Jack Thomas Mem.,US,United States Of America,37.7667,-96.8667
EDW,Edwards Air Force Base,US,United States Of America,34.9058,-117.8836
EED,Needles,US,United States Of America,34.85,-114.6167
EEK,Eek,US,United States Of America,60.215,-162.0119
EEN,Keene Dillant Hopkins Municipal,US,United States Of America,42.9,-72.2667
EFB,Eight Fathom Bight,US,United States Of America,58.0,-135.7333
EFD,Houston Ellington,US,United States Of America,29.6056,-95.1553
EFK,Newport State,US,United States Of America,44.8917,-72.2294
EFO,East Forks,US,United States Of America,64.7,-164.2833
EFW,Jefferson Municipal,US,United States Of America,42.0167,-94.3833
EGE,Vail/Eagle,US,United States Of America,39.6425,-106.9178
EGI,Crestview Duke Field,US,United States Of America,30.4833,-86.5
EGP,Eagle Pass Maverick Co. Mem. Intl,US,United States Of America,28.8667,-100.5333
EGV,Eagle River Union,US,United States Of America,45.9333,-89.2667
EGX,Egegik,US,United States Of America,58.1856,-157.3756
EHM,Cape Newenham,US,United States Of America,58.6464,-162.0628
EHT,East Hartford Rentschler,US,United States Of America,41.7667,-72.65
EIL,Fairbanks Eielson Afb,US,United States Of America,64.6667,-147.1
EKA,Arcata/Eureka Murray Field,US,United States Of America,40.8,-124.1167
EKI,Elkhart Municipal,US,United States Of America,41.7167,-85.9833
EKN,Elkins Randolph County,US,United States Of America,38.89,-79.8578
EKO,Elko,US,United States Of America,40.8275,-115.7814
EKW,Miami Bl,US,United States Of America,25.7808,-80.1958
EKX,Elizabethtown Regional-Addington Fld,US,United States Of America,37.7,-85.8667
ELA,Eagle Lake,US,United States Of America,29.5833,-96.3333
ELD,El Dorado South Arkansas Rgnl,US,United States Of America,33.2211,-92.8133
ELI,Elim,US,United States Of America,64.6156,-162.2703
ELK,Elk City Regional Business,US,United States Of America,35.4,-99.4167
ELM,Elmira/Corning,US,United States Of America,42.16,-76.8917
ELN,Ellensburg Bowers Field,US,United States Of America,47.0333,-120.5333
ELP,El Paso,US,United States Of America,31.8025,-106.3983
ELV,Elfin Cove,US,United States Of America,58.1953,-136.3475
ELW,Ellamar Sea Plane Base,US,United States Of America,60.8972,-146.6125
ELY,Ely Yelland Field,US,United States Of America,39.3,-114.85
ELZ,Wellsville Municipal,US,United States Of America,42.1167,-77.9333
EMB,San Francisco Embarcadero Apt,US,United States Of America,37.6336,-122.3669
EMK,Emmonak,US,United States Of America,62.7861,-164.4908
EMM,Kemmerer Municipal,US,United States Of America,41.85,-110.55
EMP,Emporia Municipal,US,United States Of America,38.3333,-96.1833
EMT,El Monte San Gabriel Valley,US,United States Of America,34.1,-118.0333
ENA,Kenai,US,United States Of America,60.5731,-151.245
END,Enid Vance Afb,US,United States Of America,36.3861,-97.7861
ENL,Centralia Municipal,US,United States Of America,38.5167,-89.0917
ENN,Nenana Municipal,US,United States Of America,64.55,-149.0833
ENV,Wendover,US,United States Of America,40.7333,-114.0333
ENW,Kenosha Regional,US,United States Of America,42.5958,-87.9278
EOK,Keokuk Municipal,US,United States Of America,40.4667,-91.4333
EOS,Neosho Hugh Robinson,US,United States Of America,36.8667,-94.3667
EPG,Weeping Water Browns,US,United States Of America,40.8667,-96.1333
EPH,Ephrata Municipal,US,United States Of America,47.3,-119.5167
ERI,Erie,US,United States Of America,42.0819,-80.1761
ERO,Eldred Rock Coast Guard Heliport,US,United States Of America,58.9667,-135.2167
ERR,Errol,US,United States Of America,44.7925,-71.1647
ERV,Kerrville Municipal,US,United States Of America,29.9833,-99.0833
ESC,Escanaba,US,United States Of America,45.7206,-87.0958
ESD,Eastsound Orcas Island,US,United States Of America,48.7075,-122.9108
ESF,Alexandria Esler Regional Apt,US,United States Of America,31.4,-92.3
ESN,Easton Newnam Field,US,United States Of America,38.8019,-76.0686
ESO,Espanola Ohkay Owingeh,US,United States Of America,36.1,-106.0333
ESP,East Stroudsburg Stroudsburg-Pocono,US,United States Of America,41.0,-75.1833
EST,Estherville Municipal,US,United States Of America,43.4,-94.8333
ESW,Easton,US,United States Of America,47.2333,-121.1833
ETB,West Bend Municipal,US,United States Of America,43.4167,-88.1833
ETN,Eastland Municipal,US,United States Of America,32.4167,-98.8
ETS,Enterprise Municipal,US,United States Of America,31.3167,-85.85
EUE,Eureka,US,United States Of America,39.5167,-115.9667
EUF,Eufaula Weedon Field,US,United States Of America,31.95,-85.1333
EUG,Eugene,US,United States Of America,44.1247,-123.2119
EVA,Evadale Ben Bruce Mem. Airpark,US,United States Of America,30.35,-94.0667
EVM,Eveleth-Virginia Municipal,US,United States Of America,47.4333,-92.5
EVV,Evansville,US,United States Of America,38.0369,-87.5325
EVW,Evanston Uinta County,US,United States Of America,41.35,-111.0167
EWB,New Bedford,US,United States Of America,41.6761,-70.9569
EWD,Wildman Lake,US,United States Of America,56.4564,-159.7622
EWK,Newton City-County,US,United States Of America,38.05,-97.35
EWN,New Bern,US,United States Of America,35.0731,-77.0431
EWR,New York Newark,US,United States Of America,40.6925,-74.1686
EXI,Excursion Inlet,US,United States Of America,58.4197,-135.4481
EYR,Yerington Municipal,US,United States Of America,39.0039,-119.1578
EYW,Key West,US,United States Of America,24.5561,-81.7594
FAF,Fort Eustis Felker Aaf.,US,United States Of America,37.15,-76.5833
FAI,Fairbanks,US,United States Of America,64.815,-147.8564
FAK,False Island Sea Plane Base,US,United States Of America,57.5306,-135.2167
FAL,Roma Falcon State,US,United States Of America,26.5861,-99.1375
FAM,Farmington Municipal,US,United States Of America,37.7611,-90.4286
FAR,Fargo,US,United States Of America,46.9206,-96.8158
FAT,Fresno Yosemite,US,United States Of America,36.7761,-119.7181
FAY,Fayetteville,US,United States Of America,34.99,-78.8831
FBG,Fort Bragg Simmons Aaf,US,United States Of America,35.15,-78.9833
FBK,Fairbanks Ladd Aaf,US,United States Of America,64.8167,-147.8667
FBL,Faribault,US,United States Of America,44.3333,-93.3167
FBR,Fort Bridger,US,United States Of America,41.3167,-110.3833
FBS,Friday Harbor Spb,US,United States Of America,48.54,-123.0161
FBT,Fort Lauderdale Bl,US,United States Of America,26.1236,-80.1461
FBY,Fairbury Municipal,US,United States Of America,40.1333,-97.1833
FCA,Kalispell,US,United States Of America,48.3106,-114.2561
FCH,Fresno Chandler Executive Apt,US,United States Of America,36.7331,-119.8206
FCM,Minneapolis/St Paul Flying Cloud Apt,US,United States Of America,44.8278,-93.46
FCS,Colorado Fort Carson/Butts Aaf,US,United States Of America,38.8194,-104.7167
FCT,Yakima Vagabond Ahp,US,United States Of America,46.5694,-120.5361
FCY,Forrest City Municipal,US,United States Of America,34.95,-90.7667
FDK,Frederick,US,United States Of America,39.4167,-77.4167
FDR,Frederick Regional,US,United States Of America,34.35,-98.9833
FDY,Findlay,US,United States Of America,41.0167,-83.6667
FEP,Freeport Albertus,US,United States Of America,42.2667,-89.5833
FET,Fremont Municipal,US,United States Of America,41.4333,-96.5
FEW,Cheyenne Warren Afb H/P,US,United States Of America,41.15,-104.8167
FFA,Kill Devil First Flight,US,United States Of America,36.0167,-75.6667
FFL,Fairfield Municipal,US,United States Of America,40.9333,-91.95
FFM,Fergus Falls Municipal,US,United States Of America,46.2833,-96.1667
FFO,Dayton Wright-Patterson Afb,US,United States Of America,39.9,-84.2167
FFT,Frankfort Capitol City,US,United States Of America,38.1833,-84.9
FIC,Fire Cove,US,United States Of America,55.7778,-131.5375
FID,Fishers Island Elizabeth Field,US,United States Of America,41.2522,-72.0322
FIL,Fillmore Municipal,US,United States Of America,38.9667,-112.3333
FIV,Five Finger Coast Guard Heliport,US,United States Of America,57.2667,-133.6333
FKL,Franklin Venango Regional,US,United States Of America,41.3792,-79.86
FKN,Franklin Municipal-John B. Rose,US,United States Of America,36.6833,-76.9167
FLD,Fond Du Lac County,US,United States Of America,43.7692,-88.4864
FLE,Petersburg Fort Lee Aaf,US,United States Of America,37.2167,-77.4
FLG,Grand Canyon Pulliam Field,US,United States Of America,35.1383,-111.6711
FLJ,Falls Bay,US,United States Of America,60.0325,-148.0083
FLL,Fort Lauderdale,US,United States Of America,26.0725,-80.1528
FLO,Florence,US,United States Of America,34.1875,-79.7247
FLP,Flippin Marion County Regional,US,United States Of America,36.3,-92.5833
FLT,Flat Municipal,US,United States Of America,62.45,-158.0
FLU,New York Flushing Airport,US,United States Of America,40.7833,-73.8333
FLV,Fort Leavenworth Sherman Aaf,US,United States Of America,39.3167,-94.9167
FLX,Fallon Municipal Apt,US,United States Of America,39.4667,-118.7694
FMC,Five Mile,US,United States Of America,65.9167,-149.8333
FME,Fort Meade/Odenton Tipton,US,United States Of America,39.0856,-76.7594
FMH,Falmouth Cape Cod Coast Guard,US,United States Of America,41.5667,-70.6333
FMN,Farmington,US,United States Of America,36.7414,-108.2311
FMS,Fort Madison Municipal,US,United States Of America,40.65,-91.3167
FMU,Florence Municipal,US,United States Of America,43.9828,-124.1111
FMY,Fort Myers,US,United States Of America,26.5833,-81.8667
FNK,Fin Creek,US,United States Of America,69.5,-147.5833
FNL,Northern Colorado Regional,US,United States Of America,40.4517,-105.0117
FNR,Funter Bay,US,United States Of America,58.2333,-134.9167
FNT,Flint,US,United States Of America,42.9656,-83.7436
FOB,Fort Bragg,US,United States Of America,39.4333,-123.8
FOD,Fort Dodge Regional,US,United States Of America,42.5511,-94.1919
FOE,Topeka Forbes Afb,US,United States Of America,38.9508,-95.6636
FOK,Westhampton Beach Francis S. Gabreski,US,United States Of America,40.8419,-72.6325
FOP,Forest Park Morris Aaf,US,United States Of America,33.6167,-84.3667
FOX,Fox,US,United States Of America,64.85,-147.7667
FPR,Fort Pierce St Lucie County Intl,US,United States Of America,27.4833,-80.3667
FPY,Perry-Foley,US,United States Of America,30.1167,-83.5833
FRD,Friday Harbor,US,United States Of America,48.5256,-123.0261
FRG,Farmingdale Republic,US,United States Of America,40.7294,-73.4144
FRH,French Lick Municipal,US,United States Of America,38.55,-86.6167
FRI,Fort Riley Marshall Aaf,US,United States Of America,39.0667,-96.7833
FRM,Fairmont Municipal,US,United States Of America,43.65,-94.4167
FRN,Anchorage Bryant Aaf,US,United States Of America,61.25,-149.6833
FRP,Fresh Water Bay,US,United States Of America,57.8458,-135.025
FRR,Front Royal Warren County,US,United States Of America,38.9181,-78.2569
FRY,Fryeburg Eastern Slopes Regional,US,United States Of America,43.9908,-70.9475
FSD,Sioux Falls,US,United States Of America,43.5819,-96.7419
FSI,Lawton/Fort Sill Henry Post Army Air Fi,US,United States Of America,34.6667,-98.4167
FSK,Fort Scott,US,United States Of America,37.8,-94.7667
FSM,Fort Smith,US,United States Of America,35.3367,-94.3675
FSN,Fort Sheridan Haley Army Air Field,US,United States Of America,42.2167,-87.8
FST,Fort Stockton Pecos County,US,United States Of America,30.9167,-102.9167
FSU,Fort Sumner Municipal,US,United States Of America,34.4667,-104.25
FTK,Fort Knox Godman Army Air Field,US,United States Of America,37.9,-85.95
FTL,Fortuna Ledge,US,United States Of America,61.8667,-162.0333
FTW,Fort Worth Meacham Intl,US,United States Of America,32.82,-97.3594
FTY,Atlanta Fulton County Apt,US,United States Of America,33.7783,-84.5269
FUL,Fullerton Municipal,US,United States Of America,33.8722,-117.9797
FWA,Fort Wayne,US,United States Of America,40.9831,-85.1897
FWH,Fort Worth Nas Jrb,US,United States Of America,32.9,-97.0333
FWL,Farewell,US,United States Of America,62.5167,-153.9
FXE,Fort Lauderdale Executive Apt,US,United States Of America,26.1961,-80.1697
FXM,Flaxman Island Air Force Station,US,United States Of America,70.2167,-146.0
FXY,Forest City Municipal,US,United States Of America,43.2667,-93.65
FYM,Fayetteville Municipal,US,United States Of America,35.15,-86.5833
FYU,Fort Yukon,US,United States Of America,66.5714,-145.2506
FYV,Fayetteville,US,United States Of America,36.0056,-94.1703
GAB,Gabbs,US,United States Of America,38.8667,-117.9167
GAD,Gadsden Northeast Alabama Regional,US,United States Of America,33.9667,-86.0833
GAG,Gage,US,United States Of America,36.3167,-99.75
GAI,Gaithersburg Montgomery Co Airpark,US,United States Of America,39.1683,-77.1661
GAK,Gakona,US,United States Of America,62.3,-145.3
GAL,Galena,US,United States Of America,64.7361,-156.9375
GAM,Gambell,US,United States Of America,63.7667,-171.7328
GBD,Great Bend Municipal,US,United States Of America,38.35,-98.8667
GBG,Galesburg Municipal,US,United States Of America,40.9333,-90.4333
GBH,Galbraith Ice Landing,US,United States Of America,68.4667,-149.4833
GBO,Baltimore Greenbelt Rail Station,US,United States Of America,39.1861,-76.6833
GBR,Great Barrington Walter J Koladza,US,United States Of America,42.2,-73.3667
GCC,Gillette,US,United States Of America,44.3475,-105.5417
GCD,Electric City Grand Coulee Dam,US,United States Of America,47.9236,-119.0806
GCK,Garden City,US,United States Of America,37.9275,-100.7244
GCN,Grand Canyon National Park,US,United States Of America,35.9525,-112.1469
GCT,Grand Canyon Bar Ten Ranch,US,United States Of America,36.2581,-113.2311
GCW,Grand Canyon West,US,United States Of America,35.9903,-113.8164
GCY,Greeneville Greene County Municipal,US,United States Of America,36.1833,-82.8167
GDC,Greenville/Spartanburg Donaldson Fld,US,United States Of America,34.8481,-82.3486
GDH,Golden Horn Lodge Spb,US,United States Of America,59.7167,-158.1667
GDM,Gardner Municipal,US,United States Of America,42.5667,-72.0
GDV,Glendive Hilger Field,US,United States Of America,47.1406,-104.8094
GDW,Gladwin Zettel Memorial,US,United States Of America,43.9833,-84.4833
GED,Georgetown Sussex County,US,United States Of America,38.6833,-75.3667
GEG,Spokane,US,United States Of America,47.6172,-117.54
GEK,Ganes Creek,US,United States Of America,62.9833,-156.5
GEY,Greybull South Big Horn,US,United States Of America,44.5167,-108.0833
GFA,Great Falls Malmstrom Afb Heliport,US,United States Of America,47.5,-111.1667
GFB,Togiak Fish,US,United States Of America,59.05,-160.2944
GFD,Greenfield,US,United States Of America,39.7833,-85.7667
GFK,Grand Forks,US,United States Of America,47.9492,-97.1761
GFL,Glens Falls Floyd Bennett Memorial,US,United States Of America,43.3389,-73.6089
GGE,Georgetown County,US,United States Of America,33.3167,-79.3167
GGG,Longview,US,United States Of America,32.3839,-94.7114
GGW,Glasgow City County,US,United States Of America,48.2125,-106.6147
GHM,Centerville Municipal,US,United States Of America,35.7833,-87.4667
GIF,Winter Haven's Gilbert,US,United States Of America,28.0667,-81.75
GJT,Grand Junction,US,United States Of America,39.1233,-108.5258
GKN,Gulkana,US,United States Of America,62.1567,-145.4547
GKT,Sevierville Gatlinburg,US,United States Of America,35.85,-83.5167
GLB,Globe San Carlos Apache,US,United States Of America,33.3531,-110.6672
GLD,Goodland Renner Field,US,United States Of America,39.3667,-101.7
GLE,Gainesville Municipal,US,United States Of America,33.6167,-97.1167
GLH,Greenville Mid-Delta,US,United States Of America,33.4772,-90.985
GLQ,Glenallen,US,United States Of America,62.1167,-145.55
GLR,Gaylord Regional,US,United States Of America,45.0167,-84.7
GLS,Galveston Scholes Intl,US,United States Of America,29.2667,-94.8667
GLV,Golovin,US,United States Of America,64.5481,-163.0119
GLW,Glasgow Municipal,US,United States Of America,37.0333,-85.95
GMT,Granite Mountain Air Station,US,United States Of America,65.4,-161.2833
GMU,Greenville/Spartanburg Downtown Apt,US,United States Of America,34.8694,-82.4167
GMV,Monument Valley,US,United States Of America,37.0,-110.2
GNF,Quincy Gansner Field,US,United States Of America,39.9439,-120.9453
GNG,Gooding Municipal,US,United States Of America,42.9167,-114.7833
GNT,Grants-Milan Municipal,US,United States Of America,35.15,-107.8667
GNU,Goodnews Bay,US,United States Of America,59.1178,-161.5761
GNV,Gainesville,US,United States Of America,29.69,-82.2717
GOF,San Angelo Goodfellow Afb,US,United States Of America,31.4167,-100.4
GOK,Guthrie-Edmond Rgnl,US,United States Of America,35.8833,-97.4167
GOL,Gold Beach Municipal,US,United States Of America,42.4167,-124.4167
GON,Groton/New London,US,United States Of America,41.3297,-72.0439
GPT,Gulfport/Biloxi,US,United States Of America,30.4072,-89.07
GPZ,Grand Rapids Itasca County,US,United States Of America,47.2086,-93.5111
GQQ,Galion Municipal,US,United States Of America,40.7333,-82.8
GRB,Green Bay,US,United States Of America,44.4856,-88.1339
GRD,Greenwood County,US,United States Of America,34.25,-82.15
GRE,Greenville,US,United States Of America,38.8833,-89.4167
GRF,Tacoma Gray Aaf,US,United States Of America,47.0786,-122.5806
GRI,Grand Island,US,United States Of America,40.9675,-98.3097
GRK,Killeen Gray,US,United States Of America,31.0672,-97.8289
GRM,Grand Marais Cook County,US,United States Of America,47.75,-91.3333
GRN,Gordon Municipal,US,United States Of America,42.8,-102.2
GRR,Grand Rapids,US,United States Of America,42.8808,-85.5228
GSB,Goldsboro Seymour Johnson,US,United States Of America,35.4667,-77.9667
GSH,Goshen Municipal,US,United States Of America,41.5264,-85.7942
GSO,Greensboro/High Point,US,United States Of America,36.0978,-79.9372
GSP,Greenville/Spartanburg,US,United States Of America,34.8956,-82.2189
GST,Gustavus,US,United States Of America,58.4253,-135.7075
GTF,Great Falls,US,United States Of America,47.4819,-111.3706
GTG,Grantsburg Municipal,US,United States Of America,45.7833,-92.6833
GTP,Grants Pass,US,United States Of America,42.51,-123.3878
GTY,Gettysburg Regional,US,United States Of America,39.8444,-77.2717
GUC,Gunnison,US,United States Of America,38.5356,-106.9331
GUF,Gulf Shores Jack Edwards,US,United States Of America,30.1667,-87.5833
GUN,Montgomery Gunter Afb,US,United States Of America,32.3028,-86.4028
HBO,Humboldt Municipal,US,United States Of America,40.1667,-95.95
HBR,Hobart Regional,US,United States Of America,34.9914,-99.0547
HCA,Big Spring Mcmahon-Wrinkle,US,United States Of America,32.3,-101.4333
HCB,Shoal Cove,US,United States Of America,55.4583,-131.2833
HCC,Hudson Columbia County,US,United States Of America,42.2944,-73.7111
HCR,Holy Cross,US,United States Of America,62.1903,-159.7725
HCW,Cheraw Municipal,US,United States Of America,34.7,-79.8833
HDA,Hidden Falls,US,United States Of America,57.0667,-134.9833
HDE,Holdrege Brewster Field,US,United States Of America,40.4333,-99.3667
HDH,Mokuleia Dillingham,US,United States Of America,21.5797,-158.1972
HDN,Hayden Yampa Valley,US,United States Of America,40.4833,-107.2236
HED,Herendeen Bay,US,United States Of America,55.8,-160.9
HEE,Helena-West Helena Thompson-Robbins,US,United States Of America,34.5833,-90.6667
HES,Hermiston Municipal,US,United States Of America,45.85,-119.2833
HEY,Fort Rucker/Ozark Hanchey Ahp,US,United States Of America,31.4361,-85.6167
HEZ,Natchez Adams County,US,United States Of America,31.6167,-91.3
HFD,Hartford Brainard,US,United States Of America,41.7372,-72.6486
HFF,Camp Mackall Mackall Army Air Field,US,United States Of America,35.0333,-79.5667
HGR,Hagerstown,US,United States Of America,39.7081,-77.7294
HGT,Fort Hunter Liggett Tusi Ahp,US,United States Of America,35.9833,-121.1667
HGZ,Hogatza Hog River,US,United States Of America,66.1833,-155.6667
HHH,Hilton Head Island,US,United States Of America,32.2222,-80.6989
HHI,Wahiawa Wheeler Aaf,US,United States Of America,21.5,-158.0167
HHR,Hawthorne Municipal,US,United States Of America,33.9228,-118.3347
HIB,Hibbing/Chisholm,US,United States Of America,47.3867,-92.8389
HIE,Whitefield Mount Washington Regional,US,United States Of America,44.3667,-71.55
HIF,Ogden Hill Afb,US,United States Of America,41.2028,-112.0194
HII,Lake Havasu City,US,United States Of America,34.5683,-114.3553
HIK,Honolulu Hickam Afb,US,United States Of America,21.3167,-157.9167
HIO,Portland Hillsboro,US,United States Of America,45.5381,-122.9475
HKA,Blytheville Municipal Apt,US,United States Of America,35.9361,-89.9167
HKB,Healy Lake,US,United States Of America,63.8675,-148.9703
HKS,Jackson Hawkins Field,US,United States Of America,32.3364,-90.2239
HKY,Hickory Regional,US,United States Of America,35.7333,-81.3833
HLB,Batesville,US,United States Of America,39.3,-85.2167
HLC,Hill City Municipal,US,United States Of America,39.3667,-99.85
HLG,Wheeling Ohio County,US,United States Of America,40.1833,-80.65
HLI,Hollister Municipal,US,United States Of America,36.85,-121.4
HLM,Holland Park Township,US,United States Of America,42.7833,-86.1167
HLN,Helena,US,United States Of America,46.6069,-111.9828
HLR,Killeen/Fort Hood Hood Aaf,US,United States Of America,31.0833,-97.6833
HMN,Alamogordo Holloman Afb,US,United States Of America,32.9,-105.95
HMT,Hemet Ryan,US,United States Of America,33.75,-116.9667
HNB,Huntingburg,US,United States Of America,38.3,-86.95
HNC,Hatteras Billy Mitchell,US,United States Of America,35.2328,-75.6183
HNE,Tahneta Pass,US,United States Of America,61.8833,-147.3333
HNH,Hoonah,US,United States Of America,58.0958,-135.4128
HNL,Honolulu,US,United States Of America,21.3278,-157.9222
HNM,Hana Municipal,US,United States Of America,20.7956,-156.0144
HNS,Haines,US,United States Of America,59.2439,-135.5236
HNX,Hanna,US,United States Of America,41.8667,-106.5667
HOL,Holikachuk,US,United States Of America,62.9,-159.5167
HOM,Homer,US,United States Of America,59.6456,-151.4767
HON,Huron Regional,US,United States Of America,44.3853,-98.2286
HOP,Hopkinsville Campbell Army Air Field,US,United States Of America,36.6686,-87.4964
HOT,Hot Springs Memorial,US,United States Of America,34.4781,-93.0961
HOU,Houston William P. Hobby Apt,US,United States Of America,29.6456,-95.2789
HPB,Hooper Bay,US,United States Of America,61.5239,-166.1467
HPN,Westchester County,US,United States Of America,41.0669,-73.7075
HPT,Hampton Municipal,US,United States Of America,42.75,-93.2
HPV,Hanalei Princeville,US,United States Of America,22.2125,-159.4467
HPY,Baytown Humphrey,US,United States Of America,29.7333,-94.9667
HQM,Hoquiam/Aberdeen Bowerman,US,United States Of America,46.9667,-123.9333
HRL,Harlingen,US,United States Of America,26.2286,-97.6544
HRO,Harrison Municipal,US,United States Of America,36.2614,-93.1547
HSB,Harrisburg Raleigh,US,United States Of America,37.7333,-88.55
HSH,Las Vegas Henderson Executive Apt,US,United States Of America,35.9683,-115.1192
HSI,Hastings Municipal,US,United States Of America,40.6,-98.4333
HSL,Huslia,US,United States Of America,65.6978,-156.3514
HSP,Hot Springs Ingalls Field,US,United States Of America,37.9522,-79.8331
HST,Homestead Arb,US,United States Of America,25.4833,-80.4833
HSV,Huntsville,US,United States Of America,34.6372,-86.775
HTH,Hawthorne Industrial,US,United States Of America,38.55,-118.6333
HTL,Houghton Lake Roscommon County,US,United States Of America,44.3664,-84.675
HTO,East Hampton,US,United States Of America,40.9592,-72.2511
HTS,Huntington,US,United States Of America,38.3683,-82.5592
HTV,Huntsville Bruce Brothers Rgnl,US,United States Of America,30.75,-95.5833
HTW,Chesapeake Lawrence Co. Airpark,US,United States Of America,38.4167,-82.4861
HUA,Huntsville Redstone Aaf,US,United States Of America,34.65,-86.7833
HUD,Humboldt Municipal,US,United States Of America,42.7333,-94.2167
HUF,Terre Haute International (Hulman Field,US,United States Of America,39.45,-87.3
HUJ,Hugo Stan Stamper Municipal,US,United States Of America,34.0167,-95.5167
HUL,Houlton International,US,United States Of America,46.1333,-67.8
HUM,Houma Terrebonne,US,United States Of America,29.5833,-90.6667
HUS,Hughes,US,United States Of America,66.0431,-154.2611
HUT,Hutchinson Municipal,US,United States Of America,38.0667,-97.8667
HVE,Hanksville,US,United States Of America,38.4167,-110.7
HVN,New Haven,US,United States Of America,41.2639,-72.8869
HVR,Havre City-County,US,United States Of America,48.5442,-109.7592
HVS,Hartsville Regional,US,United States Of America,34.4,-80.1167
HWD,Hayward Executive,US,United States Of America,37.6592,-122.1228
HWI,Hawk Inlet Seaplane Base,US,United States Of America,58.1167,-134.7333
HWO,Hollywood North Perry,US,United States Of America,26.0022,-80.2433
JAJ,Atlanta Perimeter Mall H/P,US,United States Of America,33.6333,-84.4333
JAN,Jackson-Evers,US,United States Of America,32.3111,-90.0758
JAO,Atlanta Beaver Ruin H/P,US,United States Of America,34.0,-84.15
JAS,Jasper County-Bell Fld,US,United States Of America,30.9167,-94.0167
JAX,Jacksonville Florida (US),US,United States Of America,30.4942,-81.6878
JBC,Boston City H/P,US,United States Of America,42.35,-71.05
JBP,Los Angeles Commerce Bus. Park H/P,US,United States Of America,33.9867,-118.1597
JBR,Jonesboro Municipal,US,United States Of America,35.8331,-90.6494
JBT,Bethel Sea Plane Base,US,United States Of America,60.7889,-161.8333
JCC,San Francisco China Basin H/P,US,United States Of America,37.6167,-122.3667
JCE,Oakland Convention Center H/P,US,United States Of America,37.7333,-122.2
JCI,Kansas City New Century Aircenter Apt,US,United States Of America,38.8481,-94.7378
JCT,Junction Kimble County,US,United States Of America,30.4833,-99.7667
JCX,Los Angeles Citicorp Plaza H/P,US,United States Of America,34.05,-118.2667
JCY,Johnson City Lbj Ranch,US,United States Of America,32.3333,-97.3333
JDA,John Day Grant County Regional,US,United States Of America,44.4167,-118.95
JDB,Dallas Cbd Vertiport,US,United States Of America,32.7667,-97.3167
JDM,Miami Downtown H/P,US,United States Of America,25.8028,-80.2861
JDN,Jordan,US,United States Of America,47.3167,-106.9167
JDT,Minneapolis Downtown H/P,US,United States Of America,44.9028,-93.2167
JDX,Houston First City Heliport,US,United States Of America,29.7667,-95.3333
JDY,Downey Heliport,US,United States Of America,33.9564,-118.1206
JEC,Jersey City Offline Point Jersey City O,US,United States Of America,40.7483,-74.0631
JEF,Jefferson City Memorial,US,United States Of America,38.6,-92.15
JEM,Emeryville Heliport,US,United States Of America,37.95,-122.3361
JFK,New York J F Kennedy,US,United States Of America,40.6397,-73.7789
JFN,Ashtabula Northeast Ohio Regional,US,United States Of America,41.7333,-80.7667
JGC,Grand Canyon H/P,US,United States Of America,35.975,-112.1403
JGL,Atlanta Galleria Heliport,US,United States Of America,33.6361,-84.4333
JGP,Houston Greenway Plaza H/P,US,United States Of America,29.7333,-95.4333
JGQ,Houston Transco Tower Heliport,US,United States Of America,29.7667,-95.4667
JGX,Glendale Heliport,US,United States Of America,34.1333,-118.2667
JHC,Garden City Heliport,US,United States Of America,40.7444,-73.6083
JHM,Kapalua,US,United States Of America,20.9631,-156.6731
JHW,Jamestown Chautauqua County,US,United States Of America,42.1522,-79.2594
JHY,Cambridge Hyatt Regency Heliport,US,United States Of America,42.3667,-71.1028
JID,Los Angeles City Of Industry H/P,US,United States Of America,34.0272,-117.9583
JKV,Jacksonville Cherokee County,US,United States Of America,31.9667,-95.2833
JLA,Cooper Landing Quartz Creek,US,United States Of America,60.4833,-149.85
JLB,Long Beach H/P,US,United States Of America,33.8194,-118.1528
JLH,Arlington Us Army Heliport (Jlh),US,United States Of America,42.0833,-87.9833
JLX,Los Angeles Union Stn Annex H/P,US,United States Of America,33.95,-118.4
JMC,Sausalito Commodore Center H/P,US,United States Of America,37.85,-122.5194
JMD,Dallas/Fort Worth Market Center H/P,US,United States Of America,32.9056,-97.0333
JMH,Schaumburg Marriott Heliport,US,United States Of America,42.0333,-88.0833
JMN,Mankato Municipal H/P,US,United States Of America,44.2167,-93.9167
JNP,Newport Beach Heliport,US,United States Of America,33.6,-117.8833
JNU,Juneau,US,United States Of America,58.355,-134.5764
JOC,Santa Ana Centerport Heliport,US,United States Of America,33.6694,-117.8694
JOR,Orange The City Heliport,US,United States Of America,33.7917,-117.875
JOT,Joliet Regional,US,United States Of America,41.5333,-88.0833
JPD,Pasadena Heliport,US,United States Of America,34.1333,-118.1333
JPN,Washington Pentagon Ahp,US,United States Of America,38.85,-77.0333
JPT,Houston Park Ten H/P,US,United States Of America,29.7833,-95.65
JRA,New York West 30th Street H/P,US,United States Of America,40.7544,-74.0075
JRB,New York Downtown Manhattan H/P,US,United States Of America,40.7011,-74.0089
JRC,Rochester Municipal H/P,US,United States Of America,43.9194,-92.5028
JRD,Riverside Metro Center H/P,US,United States Of America,33.95,-117.45
JRE,New York East 60th Street H/P,US,United States Of America,40.8,-73.9667
JRF,Kapolei Kalaeloa,US,United States Of America,21.3072,-158.0703
JSD,Stratford United Aircraft,US,United States Of America,41.1833,-73.1333
JSG,San Rafael Heliport,US,United States Of America,37.9833,-122.5167
JSL,Atlantic City Steel Pier Heliport,US,United States Of America,39.3667,-74.4167
JSN,Los Angeles Sherman Oaks H/P,US,United States Of America,34.0,-119.0
JST,Johnstown John Murtha-Cambria Co,US,United States Of America,40.3161,-78.8339
JTO,Thousand Oaks Heliport,US,United States Of America,34.1833,-118.95
JUC,Los Angeles Universal City H/P,US,United States Of America,33.9331,-118.4
JUP,Upland Cable Heliport,US,United States Of America,34.1167,-117.6833
JVI,Manville Central Jersey Regional,US,United States Of America,40.5253,-74.5972
JVL,Janesville Southern Wisconsin Regional,US,United States Of America,42.6167,-89.0333
JWC,Los Angeles Warner Center Plaza H/P,US,United States Of America,33.9417,-118.4
JWH,Houston Westchase Heliport,US,United States Of America,29.7333,-95.55
JWL,Houston Woodlands H/P,US,United States Of America,29.6528,-95.2833
JXN,Jackson County,US,United States Of America,42.2594,-84.4617
KAE,Kake,US,United States Of America,56.9614,-133.9103
KAL,Kaltag,US,United States Of America,64.3181,-158.7431
KBC,Birch Creek,US,United States Of America,66.2722,-145.8189
KBE,Bell Island,US,United States Of America,55.9167,-131.5667
KBW,Chignik Bay Spb,US,United States Of America,56.2833,-158.3833
KCC,Coffman Cove Coffman Seaplane Base,US,United States Of America,56.0125,-132.8339
KCG,Chignik Apt,US,United States Of America,56.3106,-158.3747
KCL,Chignik Lagoon Apt,US,United States Of America,56.3119,-158.5314
KCN,Chernofski Harbor Chernofski Seaplane B,US,United States Of America,53.4167,-167.55
KCQ,Chignik Lake Apt,US,United States Of America,56.2556,-158.7794
KCR,Colorado Creek,US,United States Of America,63.15,-149.4333
KDK,Kodiak Municipal Apt,US,United States Of America,57.8,-152.3667
KEB,Nanwalek,US,United States Of America,59.3522,-151.925
KEH,Kenmore Air Harbor Spb,US,United States Of America,47.7556,-122.2594
KEK,Ekwok Municipal,US,United States Of America,59.3533,-157.4764
KFP,False Pass,US,United States Of America,54.8481,-163.4064
KGK,Koliganek,US,United States Of America,59.7272,-157.2617
KGX,Grayling,US,United States Of America,62.8978,-160.0672
KGZ,Glacier Creek,US,United States Of America,61.45,-142.4
KIB,Ivanof Bay Seaplane Base,US,United States Of America,55.9,-159.4833
KIC,King City Mesa Del Rey,US,United States Of America,36.2281,-121.1208
KIP,Wichita Falls Kickapoo Downtown Apt,US,United States Of America,33.8603,-98.4906
KKA,Koyuk Alfred Adams,US,United States Of America,64.9389,-161.1553
KKB,Kitoi Bay,US,United States Of America,58.1906,-152.3678
KKF,Kagvik Creek,US,United States Of America,67.6,-163.5
KKH,Kongiganak,US,United States Of America,59.9603,-162.8814
KKI,Akiachak,US,United States Of America,60.9053,-161.4239
KKK,Kalakaket Creek Air Station,US,United States Of America,64.4169,-156.8217
KKL,Karluk Lake Seaplane Base,US,United States Of America,57.3667,-154.0167
KKT,Kentland Municipal,US,United States Of America,40.7667,-87.45
KKU,Ekuk,US,United States Of America,58.8111,-158.5617
KLG,Kalskag,US,United States Of America,61.5358,-160.3478
KLL,Levelock,US,United States Of America,59.1261,-156.8608
KLN,Larsen Bay,US,United States Of America,57.5344,-153.9778
KLS,Kelso Sw Washington Regional,US,United States Of America,46.15,-122.9
KLW,Klawock,US,United States Of America,55.5792,-133.0761
KMO,Manokotak,US,United States Of America,58.9319,-158.9019
KMY,Moser Bay Sea Plane Base,US,United States Of America,57.0014,-154.1517
KNB,Kanab Municipal,US,United States Of America,37.25,-112.8333
KNK,Kokhanok,US,United States Of America,59.4333,-154.8036
KNT,Kennett Memorial,US,United States Of America,36.2333,-90.05
KNW,New Stuyahok,US,United States Of America,59.4506,-157.3286
KOA,Kona,US,United States Of America,19.7389,-156.0456
KOT,Kotlik Airport,US,United States Of America,63.0325,-163.5306
KOY,Olga Bay,US,United States Of America,57.1603,-154.2292
KOZ,Ouzinkie,US,United States Of America,57.9256,-152.4967
KPB,Point Baker Seaplane Base,US,United States Of America,56.3519,-133.6222
KPC,Port Clarence Coast Guard Station,US,United States Of America,65.25,-166.85
KPD,King Of Prussia,US,United States Of America,40.0833,-75.3833
KPK,Parks Seaplane Base,US,United States Of America,57.4167,-155.9
KPN,Kipnuk,US,United States Of America,59.9353,-164.0319
KPR,Port Williams,US,United States Of America,58.4886,-152.5831
KPT,Jackpot Hayden Field,US,United States Of America,41.9667,-114.6667
KPV,Perryville,US,United States Of America,55.9067,-159.1608
KPY,Port Bailey,US,United States Of America,57.9306,-153.04
KQA,Akutan,US,United States Of America,54.1331,-165.7808
KSM,St Marys,US,United States Of America,62.0606,-163.3008
KTB,Thorne Bay Sea Plane Base,US,United States Of America,55.6833,-132.5333
KTH,Tikchik Lodge Sea Plane Base,US,United States Of America,60.1167,-158.5833
KTN,Ketchikan,US,United States Of America,55.3556,-131.7139
KTS,Brevig Mission,US,United States Of America,65.3322,-166.4675
KUK,Kasigluk,US,United States Of America,60.8739,-162.5242
KUW,Kugururok River,US,United States Of America,67.9667,-161.9833
KVC,King Cove Municipal,US,United States Of America,55.1167,-162.265
KVL,Kivalina,US,United States Of America,67.7361,-164.5636
KWF,Waterfall Seaplane Base,US,United States Of America,55.2953,-133.2447
KWK,Kwigillingok,US,United States Of America,59.8764,-163.1686
KWN,Quinhagak,US,United States Of America,59.7564,-161.8836
KWP,West Point Village Spb,US,United States Of America,57.77,-153.5461
KWT,Kwethluk,US,United States Of America,60.7936,-161.4419
KXA,Kasaan Seaplane Base,US,United States Of America,55.5361,-132.4014
KYK,Karluk,US,United States Of America,57.5656,-154.4519
KYL,Key Largo,US,United States Of America,25.0833,-80.4
KYO,Tampa North Aero Park Apt,US,United States Of America,28.2194,-82.3694
KYU,Koyukuk,US,United States Of America,64.8764,-157.7244
KZB,Zachar Bay,US,United States Of America,57.55,-153.75
KZH,Kizhuyak,US,United States Of America,57.5833,-153.15
LAA,Lamar Municipal,US,United States Of America,38.0667,-102.6833
LAF,Lafayette Purdue University,US,United States Of America,40.4167,-86.9333
LAL,Lakeland Linder Regional,US,United States Of America,28.0833,-81.95
LAM,Los Alamos,US,United States Of America,35.8803,-106.2711
LAN,Lansing,US,United States Of America,42.7786,-84.5872
LAS,Las Vegas,US,United States Of America,36.08,-115.1522
LAW,Lawton,US,United States Of America,34.5667,-98.4164
LAX,Los Angeles,US,United States Of America,33.9425,-118.4081
LBB,Lubbock,US,United States Of America,33.6636,-101.8228
LVS,Las Vegas Municipal,US,United States Of America,35.65,-105.15
LWB,Lewisburg,US,United States Of America,37.8561,-80.4019
LWC,Lawrence Municipal,US,United States Of America,38.95,-95.2833
LWL,Wells Municipal-Harriet Field,US,United States Of America,41.1167,-114.9667
LWM,Lawrence Municipal,US,United States Of America,42.7175,-71.1222
LWS,Lewiston,US,United States Of America,46.3756,-117.0136
LWT,Lewistown Municipal,US,United States Of America,47.0486,-109.4719
LWV,Lawrenceville Vincennes International,US,United States Of America,38.7667,-87.6
LXN,Lexington Jim Kelly Field,US,United States Of America,40.7833,-99.75
LXV,Leadville Lake County,US,United States Of America,39.2206,-106.3172
LYH,Lynchburg,US,United States Of America,37.3267,-79.2006
LYO,Lyons Rice County,US,United States Of America,38.3333,-98.2167
LYU,Ely Municipal,US,United States Of America,47.9,-91.85
LZU,Lawrenceville Gwinnett County,US,United States Of America,33.9781,-83.9622
MAC,Macon Downtown Apt,US,United States Of America,32.8222,-83.5608
MAE,Madera Municipal,US,United States Of America,36.9833,-120.1167
MAF,Midland Odessa,US,United States Of America,31.9425,-102.2019
MAW,Malden Regional,US,United States Of America,36.6,-89.9833
MBG,Mobridge Municipal,US,United States Of America,45.5333,-100.4167
MBL,Manistee Co.Blacker,US,United States Of America,44.2731,-86.2522
MBS,Saginaw,US,United States Of America,43.5319,-84.0825
MBY,Moberly Omar N. Bradley,US,United States Of America,39.4667,-92.4333
MCB,Mccomb Pike County,US,United States Of America,31.1786,-90.4722
MCC,Sacramento Mcclellan,US,United States Of America,38.6694,-121.4
MCD,Mackinac Island,US,United States Of America,45.8667,-84.6333
MCE,Merced Regional Apt,US,United States Of America,37.2833,-120.5167
MCF,Tampa Macdill Afb,US,United States Of America,27.8522,-82.4992
MCG,Mcgrath,US,United States Of America,62.9536,-155.6056
MCI,Kansas City,US,United States Of America,39.2975,-94.7139
MCL,Mckinley National Park,US,United States Of America,63.7333,-148.9
MCN,Macon Middle Georgia Regional Apt,US,United States Of America,32.6961,-83.6481
MCO,Orlando,US,United States Of America,28.4294,-81.3089
